owner_id,category_id,business_name,description,address,city,latitude,longitude,is_verified,created_at,status,approved_by
1,6,Atlanta,Extracted from OpenStreetMap,"Gulbai Tekra Road, Kochrab, Ahmedabad",Ahmedabad,23.0265179,72.5535161,True,2026-02-11 17:56:02.721680,approved,
1,9,"St. Xavier's High School, Loyola Hall",Extracted from OpenStreetMap,"St. Xavier's School Road, Memnagar, Ahmedabad",Ahmedabad,23.047875,72.5490839,True,2026-02-11 17:56:02.721680,approved,
1,9,Mt. Carmel School,Extracted from OpenStreetMap,"Navrangpura Internal Road, Ranip, Ahmedabad",Ahmedabad,23.0351192,72.568061,True,2026-02-11 17:56:02.721680,approved,
1,2,Bodakdev Fire Station,Extracted from OpenStreetMap,"Satya Marg, Bodakdev, Ahmedabad",Ahmedabad,23.0398116,72.5163171,True,2026-02-11 17:56:02.721680,approved,
1,11,Rajpath Club,Extracted from OpenStreetMap,"Pakwan Flyover, Bodakdev, Ahmedabad",Ahmedabad,23.034638,72.5093477,True,2026-02-11 17:56:02.721680,approved,
1,9,Navrang School,Extracted from OpenStreetMap,"Navrang Circle, Naranpura, Ahmedabad",Ahmedabad,23.0483604,72.556364,True,2026-02-11 17:56:02.721680,approved,
1,9,"DPS - Delhi Public School, Bopal",Extracted from OpenStreetMap,"DPS-Bopal Road, Ghuma, Ahmedabad",Ahmedabad,23.0419569,72.4575053,True,2026-02-11 17:56:02.721680,approved,
1,9,A. G. Teachers High School,Extracted from OpenStreetMap,"120 Feet Ring Road, Ahmedabad",Ahmedabad,23.0403655,72.5484846,True,2026-02-11 17:56:02.721680,approved,
1,11,Manav Mandir,Extracted from OpenStreetMap,"Drive-in Road, Vastrapur, Ahmedabad",Ahmedabad,23.0461532,72.5396662,True,2026-02-11 17:56:02.721680,approved,
1,11,"Karnvanath Mahadev, Shiv Temple",Extracted from OpenStreetMap,"St. Xavier's School Road, Memnagar, Ahmedabad",Ahmedabad,23.0470512,72.5498248,True,2026-02-11 17:56:02.721680,approved,
1,11,Paramdham Temple,Extracted from OpenStreetMap,"Satellite Road, Ramdev nagar, Ahmedabad",Ahmedabad,23.0279683,72.5206423,True,2026-02-11 17:56:02.721680,approved,
1,11,Gayatri Mandir,Extracted from OpenStreetMap,"Riverfront Road, Dudheshwar, Ahmedabad",Ahmedabad,23.0616617,72.5914612,True,2026-02-11 17:56:02.721680,approved,
1,3,Wide Angle,Extracted from OpenStreetMap,"Service road - Sarkhej Gandhinagar Highway, Ramdev nagar, Ahmedabad",Ahmedabad,23.0245953,72.5072957,True,2026-02-11 17:56:02.721680,approved,
1,9,St. Xavier's College,Extracted from OpenStreetMap,"St. Xavier's College Road, Ambawadi, Ahmedabad",Ahmedabad,23.0329052,72.5517045,True,2026-02-11 17:56:02.721680,approved,
1,9,SLIMS - Som Lalit Institute of Management Studies,Extracted from OpenStreetMap,"St. Xavier's College Road, Ambawadi, Ahmedabad",Ahmedabad,23.0337029,72.5537987,True,2026-02-11 17:56:02.721680,approved,
1,9,"Mount Carmel School, Khanpur",Extracted from OpenStreetMap,"RiverFront Road, Ahmedabad",Ahmedabad,23.0329288,72.5766297,True,2026-02-11 17:56:02.721680,approved,
1,11,Sports Club of Gujarat,Extracted from OpenStreetMap,"Income Tax Underpass, Usmanpura, Ahmedabad",Ahmedabad,23.0408384,72.5646398,True,2026-02-11 17:56:02.721680,approved,
1,6,Amola Chambers,Extracted from OpenStreetMap,"Chimanlal Girdharlal Road, Ambawadi, Ahmedabad",Ahmedabad,23.0322763,72.5596359,True,2026-02-11 17:56:02.721680,approved,
1,6,BSNL Navrangpura,Extracted from OpenStreetMap,"Chimanlal Girdharlal Road, Ambawadi, Ahmedabad",Ahmedabad,23.031785,72.5592443,True,2026-02-11 17:56:02.721680,approved,
1,6,Shilp,Extracted from OpenStreetMap,"Chimanlal Girdharlal Road, Ambawadi, Ahmedabad",Ahmedabad,23.0328924,72.5604427,True,2026-02-11 17:56:02.721680,approved,
1,6,City Centre,Extracted from OpenStreetMap,"Ishwar Bhuvan Road, Usmanpura, Ahmedabad",Ahmedabad,23.0406632,72.5567409,True,2026-02-11 17:56:02.721680,approved,
1,6,Navdeep,Extracted from OpenStreetMap,"Income Tax Flyover, Usmanpura, Ahmedabad",Ahmedabad,23.0405777,72.5687511,True,2026-02-11 17:56:02.721680,approved,
1,2,Memnagar Fire Station,Extracted from OpenStreetMap,"120 Feet Ring Road, Naranpura, Ahmedabad",Ahmedabad,23.0455062,72.5510013,True,2026-02-11 17:56:02.721680,approved,
1,11,Jalaram Mandir,Extracted from OpenStreetMap,"Paldi Underpass, Paldi, Ahmedabad",Ahmedabad,23.0180339,72.5617653,True,2026-02-11 17:56:02.721680,approved,
1,11,Suvidha Shopping Centre,Extracted from OpenStreetMap,"Chimanlal Girdharlal Road, Paldi, Ahmedabad",Ahmedabad,23.0144556,72.5591462,True,2026-02-11 17:56:02.721680,approved,
1,2,Jivraj Mehta Hospital,Extracted from OpenStreetMap,"Dr. Jivraj Mehta Road, Vasna, Ahmedabad",Ahmedabad,23.0085819,72.5432503,True,2026-02-11 17:56:02.721680,approved,
1,11,"Bhimnath Mahadev, Shiv Temple",Extracted from OpenStreetMap,"Manubhai Jadhani Marg, Ambawadi, Ahmedabad",Ahmedabad,23.0119553,72.5499794,True,2026-02-11 17:56:02.721680,approved,
1,11,Paldi Bus Stand,Extracted from OpenStreetMap,"Ashram Road, Paldi, Ahmedabad",Ahmedabad,23.0140725,72.5645878,True,2026-02-11 17:56:02.721680,approved,
1,3,"Adlabs, BIG Cinema",Extracted from OpenStreetMap,"Drive-in Road, Bodakdev, Ahmedabad",Ahmedabad,23.0465768,72.531028,True,2026-02-11 17:56:02.721680,approved,
1,2,Sterling Hospital Div. Of Addlife Medical Institute Pvt. Ltd.,Extracted from OpenStreetMap,"Gurukul Road, Vishram Marg, Memnagar, Ahmedabad",Ahmedabad,23.0487566,72.5312683,True,2026-02-11 17:56:02.721680,approved,
1,4,Vishala,Extracted from OpenStreetMap,"Narol-Sarkhej Road, Ahmedabad",Ahmedabad,22.9936417,72.5357058,True,2026-02-11 17:56:02.721680,approved,
1,4,Rajvadu Restaurant,Extracted from OpenStreetMap,"Gupta Nagar road, Jivraj park, Ahmedabad",Ahmedabad,23.0042051,72.5397742,True,2026-02-11 17:56:02.721680,approved,
1,8,10 (Ten) Acres Mall,Extracted from OpenStreetMap,"Kankaria Road, Sarangpur, Ahmedabad",Ahmedabad,23.01524,72.5965751,True,2026-02-11 17:56:02.721680,approved,
1,11,"Jagannath Mandir, Temple",Extracted from OpenStreetMap,"Side Road, Bhavna colony, Ahmedabad",Ahmedabad,23.0114213,72.5810755,True,2026-02-11 17:56:02.721680,approved,
1,11,Chandkheda,Extracted from OpenStreetMap,"Ahmedabad-Patan Highway Road, Chandkheda, Ahmedabad",Ahmedabad,23.107121,72.5848584,True,2026-02-11 17:56:02.721680,approved,
1,11,Sant Asharamji Ashram,Extracted from OpenStreetMap,"Asharam ashram road, Ahmedabad",Ahmedabad,23.0931619,72.6024491,True,2026-02-11 17:56:02.721680,approved,
1,11,Nal Sarovar Bird Sanctuary,Extracted from OpenStreetMap,"SH136, Ahmedabad",Ahmedabad,22.8205867,72.0455369,True,2026-02-11 17:56:02.721680,approved,
1,7,Staff Parking,Extracted from OpenStreetMap,"Main, Kochrab, Ahmedabad",Ahmedabad,23.0113878,72.5687751,True,2026-02-11 17:56:02.721680,approved,
1,3,Amphitheatre,Extracted from OpenStreetMap,"Netaji Subhash Chandra Road, Kochrab, Ahmedabad",Ahmedabad,23.0111829,72.5707945,True,2026-02-11 17:56:02.721680,approved,
1,11,Temple,Extracted from OpenStreetMap,"Ashram Road, Paldi, Ahmedabad",Ahmedabad,23.0151595,72.5666935,True,2026-02-11 17:56:02.721680,approved,
1,11,Arihant Agency,Extracted from OpenStreetMap,"Khetar pal ni pole, Manek Chowk, Ahmedabad",Ahmedabad,23.0235904,72.5912229,True,2026-02-11 17:56:02.721680,approved,
1,11,Vidyarthi,Extracted from OpenStreetMap,"Tankshal Road, Manek Chowk, Ahmedabad",Ahmedabad,23.0248237,72.5902915,True,2026-02-11 17:56:02.721680,approved,
1,4,Mangaldas Ni Haveli,Extracted from OpenStreetMap,"Gandhi Road, Revdi Bazar, Ahmedabad",Ahmedabad,23.0227338,72.5920852,True,2026-02-11 17:56:02.721680,approved,
1,4,McDonald's,Extracted from OpenStreetMap,"Ashram Road, Kochrab, Ahmedabad",Ahmedabad,23.0317635,72.5701852,True,2026-02-11 17:56:02.721680,approved,
1,4,Cyber Cafe,Extracted from OpenStreetMap,"Gujrat vidhyapeeth road, Usmanpura, Ahmedabad",Ahmedabad,23.0422876,72.5699576,True,2026-02-11 17:56:02.721680,approved,
1,2,"Medilink Hospital, Ahmedabad",Extracted from OpenStreetMap,"132 Ft. Ring Road, Jodhpur, Ahmedabad",Ahmedabad,23.0173915,72.5304396,True,2026-02-11 17:56:02.721680,approved,
1,3,City Gold Shyamal,Extracted from OpenStreetMap,"132 Ft. Ring Road, Jodhpur, Ahmedabad",Ahmedabad,23.0156527,72.5301088,True,2026-02-11 17:56:02.721680,approved,
1,2,Medilink Medical Store,Extracted from OpenStreetMap,"132 Ft. Ring Road, Jodhpur, Ahmedabad",Ahmedabad,23.0172124,72.5303877,True,2026-02-11 17:56:02.721680,approved,
1,11,Manikarnikeshwar Mahadev Temple,Extracted from OpenStreetMap,"Lala Lajpat Rai Marg, Maninagar, Ahmedabad",Ahmedabad,22.9978398,72.6073978,True,2026-02-11 17:56:02.721680,approved,
1,11,Chai Gate,Extracted from OpenStreetMap,"Main, Kochrab, Ahmedabad",Ahmedabad,23.0120139,72.5691915,True,2026-02-11 17:56:02.721680,approved,
1,5,029,Extracted from OpenStreetMap,"NH47, Ahmedabad",Ahmedabad,22.927361,72.4466514,True,2026-02-11 17:56:02.721680,approved,
1,4,Cafe Souq,Extracted from OpenStreetMap,"120 Feet Ring Road, Ahmedabad",Ahmedabad,23.0410467,72.5485619,True,2026-02-11 17:56:02.721680,approved,
1,4,Chocolate Room,Extracted from OpenStreetMap,"120 Feet Ring Road, Ahmedabad",Ahmedabad,23.0407234,72.5485324,True,2026-02-11 17:56:02.721680,approved,
1,4,"Barrista, Vijay 4 Roads",Extracted from OpenStreetMap,"Drive-in Road, Usmanpura, Ahmedabad",Ahmedabad,23.0427079,72.5494685,True,2026-02-11 17:56:02.721680,approved,
1,4,Cafe Coffee Day,Extracted from OpenStreetMap,"university cycle path, Gulbai tekra, Ahmedabad",Ahmedabad,23.0312796,72.5493907,True,2026-02-11 17:56:02.721680,approved,
1,4,Upper Crust Cafe,Extracted from OpenStreetMap,"120 Feet Ring Road, Ahmedabad",Ahmedabad,23.0412121,72.5485673,True,2026-02-11 17:56:02.721680,approved,
1,2,Health Center,Extracted from OpenStreetMap,"Tragad gam road, Ahmedabad",Ahmedabad,23.1039413,72.5679365,True,2026-02-11 17:56:02.721680,approved,
1,11,D-cabin,Extracted from OpenStreetMap,"Tragad gam road, Ahmedabad",Ahmedabad,23.1023628,72.5702646,True,2026-02-11 17:56:02.721680,approved,
1,11,Vallabhpark,Extracted from OpenStreetMap,"Jantanagar road, Ahmedabad",Ahmedabad,23.101524,72.576519,True,2026-02-11 17:56:02.721680,approved,
1,11,Bharat Kirana Stores,Extracted from OpenStreetMap,"Kasturba Gandhi Road, Dariyapur, Ahmedabad",Ahmedabad,23.0380231,72.5889014,True,2026-02-11 17:56:02.721680,approved,
1,4,Chai Gate!!!,Extracted from OpenStreetMap,"Main, Kochrab, Ahmedabad",Ahmedabad,23.0120603,72.5691606,True,2026-02-11 17:56:02.721680,approved,
1,9,Exhibition & Spatial Design,Extracted from OpenStreetMap,"Design Street, Paldi, Ahmedabad",Ahmedabad,23.0113752,72.5699733,True,2026-02-11 17:56:02.721680,approved,
1,11,Ahmedabad Historic Gujari Bazaar (Sunday Market),Extracted from OpenStreetMap,"Sabarmati Riverfront Promenade, Dudheshwar, Ahmedabad",Ahmedabad,23.0244067,72.5768457,True,2026-02-11 17:56:02.721680,approved,
1,11,Kankaria Municipal Swimming Pool,Extracted from OpenStreetMap,"Kankaria Lake Front Walkway, Sherkotda, Ahmedabad",Ahmedabad,23.0028577,72.6003888,True,2026-02-11 17:56:02.721680,approved,
1,4,Amul,Extracted from OpenStreetMap,"Main, Kochrab, Ahmedabad",Ahmedabad,23.0116852,72.568823,True,2026-02-11 17:56:02.721680,approved,
1,11,Design Gallery,Extracted from OpenStreetMap,"Main, Kochrab, Ahmedabad",Ahmedabad,23.011756,72.5690409,True,2026-02-11 17:56:02.721680,approved,
1,7,HP Fuel Station,Extracted from OpenStreetMap,"Satya Marg, Bodakdev, Ahmedabad",Ahmedabad,23.0331106,72.5139509,True,2026-02-11 17:56:02.721680,approved,
1,5,Indian Bank,Extracted from OpenStreetMap,"Service road - Sarkhej Gandhinagar Highway, Bodakdev, Ahmedabad",Ahmedabad,23.0323231,72.511317,True,2026-02-11 17:56:02.721680,approved,
1,11,State Bank of India,Extracted from OpenStreetMap,"Service road - Sarkhej Gandhinagar Highway, Ramdev nagar, Ahmedabad",Ahmedabad,23.0263264,72.5077538,True,2026-02-11 17:56:02.721680,approved,
1,9,Kendriya Vidyalaya SAC,Extracted from OpenStreetMap,"sarari vasahat pedestrain path, Vastrapur, Ahmedabad",Ahmedabad,23.0370691,72.5337334,True,2026-02-11 17:56:02.721680,approved,
1,4,Dinner Bell,Extracted from OpenStreetMap,"120 Feet Ring Road, Naranpura, Ahmedabad",Ahmedabad,23.0457522,72.5524611,True,2026-02-11 17:56:02.721680,approved,
1,2,Apollo Pharmacy,Extracted from OpenStreetMap,"120 Feet Ring Road, Naranpura, Ahmedabad",Ahmedabad,23.0456657,72.5522734,True,2026-02-11 17:56:02.721680,approved,
1,5,"State Bank of India, St. Xavier's School Road Branch",Extracted from OpenStreetMap,"120 Feet Ring Road, Naranpura, Ahmedabad",Ahmedabad,23.0458191,72.5523558,True,2026-02-11 17:56:02.721680,approved,
1,9,Sahajanand College,Extracted from OpenStreetMap,"Sahajanand College int.path, Panjrapole, Ahmedabad",Ahmedabad,23.0258294,72.5430971,True,2026-02-11 17:56:02.721680,approved,
1,9,Prabhudas Thakkar College,Extracted from OpenStreetMap,"Maharshi Ravidranath Tagor Society, Ranna Park, Ahmedabad",Ahmedabad,23.0033486,72.5669236,True,2026-02-11 17:56:02.721680,approved,
1,2,Ahmedabad Institute Of Medical Services (Aims),Extracted from OpenStreetMap,"Maharshi Ravidranath Tagor Society, Ranna Park, Ahmedabad",Ahmedabad,23.0033217,72.5639517,True,2026-02-11 17:56:02.721680,approved,
1,5,Indian Bank,Extracted from OpenStreetMap,"Maharshi Ravidranath Tagor Society, Ranna Park, Ahmedabad",Ahmedabad,23.0047261,72.5645714,True,2026-02-11 17:56:02.721680,approved,
1,7,Ansh Petrol Pump,Extracted from OpenStreetMap,"Maharshi Ravidranath Tagor Society, Ranna Park, Ahmedabad",Ahmedabad,23.0045263,72.5644882,True,2026-02-11 17:56:02.721680,approved,
1,2,Shushtrut Hospital,Extracted from OpenStreetMap,"Ashram Road, Paldi, Ahmedabad",Ahmedabad,23.0090048,72.56227,True,2026-02-11 17:56:02.721680,approved,
1,5,Central Bank of India,Extracted from OpenStreetMap,"St. Xavier's School Road, Ahmedabad",Ahmedabad,23.0471515,72.5527534,True,2026-02-11 17:56:02.721680,approved,
1,5,Kalupur Commercial Co-operative Bank,Extracted from OpenStreetMap,"120 Feet Ring Road, Naranpura, Ahmedabad",Ahmedabad,23.0453324,72.5517832,True,2026-02-11 17:56:02.721680,approved,
1,11,"Law Office of Kamalesh J Vora, Advocate",Extracted from OpenStreetMap,"Vrajraiji Colony, Naranpura, Ahmedabad",Ahmedabad,23.0467356,72.5484961,True,2026-02-11 17:56:02.721680,approved,
1,7,Akhbarnagar petrol pump,Extracted from OpenStreetMap,"Akhbarnagar Circle, Akhbar nagar, Ahmedabad",Ahmedabad,23.0684998,72.5619985,True,2026-02-11 17:56:02.721680,approved,
1,4,Havmor Restaurant,Extracted from OpenStreetMap,"Sardar Patel Stadium Road, Usmanpura, Ahmedabad",Ahmedabad,23.0376713,72.565775,True,2026-02-11 17:56:02.721680,approved,
1,4,Natural Ice Cream,Extracted from OpenStreetMap,"Law Garden Road, Ahmedabad",Ahmedabad,23.0328812,72.5655478,True,2026-02-11 17:56:02.721680,approved,
1,11,Crossword Book Store,Extracted from OpenStreetMap,"Law Garden Road, Ahmedabad",Ahmedabad,23.0327479,72.5653869,True,2026-02-11 17:56:02.721680,approved,
1,4,Agashiye Restaurant,Extracted from OpenStreetMap,"Rustom Cama Marg, Manek Chowk, Ahmedabad",Ahmedabad,23.0270378,72.5816167,True,2026-02-11 17:56:02.721680,approved,
1,5,Bank of Baroda,Extracted from OpenStreetMap,"120 Circular Road, Kankaria, Ahmedabad",Ahmedabad,23.0058514,72.5910422,True,2026-02-11 17:56:02.721680,approved,
1,6,Bhakti Infrastructure ,Extracted from OpenStreetMap,"Sardar Patel Ring Road, Ahmedabad",Ahmedabad,23.0522355,72.6809831,True,2026-02-11 17:56:02.721680,approved,
1,4,Food Temple,Extracted from OpenStreetMap,"CHANDLODIA STATION ROAD, Ranip, Ahmedabad",Ahmedabad,23.0847638,72.5647629,True,2026-02-11 17:56:02.721680,approved,
1,8,Shree Aaiji Super Market,Extracted from OpenStreetMap,"Tirupati Road, New Ranip, Ahmedabad",Ahmedabad,23.0856343,72.5646439,True,2026-02-11 17:56:02.721680,approved,
1,2,Kesharbhavani Medical Store,Extracted from OpenStreetMap,"Tirupati Road, New Ranip, Ahmedabad",Ahmedabad,23.0855329,72.5643816,True,2026-02-11 17:56:02.721680,approved,
1,8,Samruddhi Jwellers,Extracted from OpenStreetMap,"Tirupati Road, New Ranip, Ahmedabad",Ahmedabad,23.0849901,72.5646659,True,2026-02-11 17:56:02.721680,approved,
1,4,Black Salt,Extracted from OpenStreetMap,"Thaltej Road, Thaltej, Ahmedabad",Ahmedabad,23.0523024,72.4998803,True,2026-02-11 17:56:02.721680,approved,
1,4,Green House Restaurant,Extracted from OpenStreetMap,"Rustom Cama Marg, Manek Chowk, Ahmedabad",Ahmedabad,23.0272633,72.5816108,True,2026-02-11 17:56:02.721680,approved,
1,11,Gopnath Mahadev Mandir,Extracted from OpenStreetMap,"132 Ft. Ring Road, Akhbar nagar, Ahmedabad",Ahmedabad,23.0688147,72.5648948,True,2026-02-11 17:56:02.721680,approved,
1,4,Vrundavan Restaurant;AKHBAR NAGAR CIRCLE,Extracted from OpenStreetMap,"132 Ft. Ring Road, Akhbar nagar, Ahmedabad",Ahmedabad,23.0674245,72.5645716,True,2026-02-11 17:56:02.721680,approved,
1,11,Bhoyani Jain Tritha,Extracted from OpenStreetMap,"SH133, Ahmedabad",Ahmedabad,23.3595416,72.2290503,True,2026-02-11 17:56:02.721680,approved,
1,9,Panchshil Madyamic School,Extracted from OpenStreetMap,Ahmedabad,Ahmedabad,23.4021418,72.2425645,True,2026-02-11 17:56:02.721680,approved,
1,3,Market Yard,Extracted from OpenStreetMap,Ahmedabad,Ahmedabad,23.4054806,72.2409654,True,2026-02-11 17:56:02.721680,approved,
1,11,Mahadev Mandir,Extracted from OpenStreetMap,Ahmedabad,Ahmedabad,23.4055762,72.2425677,True,2026-02-11 17:56:02.721680,approved,
1,2,Arogya Vardhak Hospital,Extracted from OpenStreetMap,Ahmedabad,Ahmedabad,23.4050091,72.2415164,True,2026-02-11 17:56:02.721680,approved,
1,11,Punit Ashram,Extracted from OpenStreetMap,"Punit Marg, Maninagar, Ahmedabad",Ahmedabad,23.0024214,72.605685,True,2026-02-11 17:56:02.721680,approved,
1,9,AMC MET Medical College,Extracted from OpenStreetMap,"Lala Lajpat Rai Marg, Maninagar, Ahmedabad",Ahmedabad,22.9986434,72.6046567,True,2026-02-11 17:56:02.721680,approved,
1,11,Rehoboth Christian Assembly,Extracted from OpenStreetMap,"132 Ft. Ring Road, Jivraj park, Ahmedabad",Ahmedabad,23.0010208,72.5368761,True,2026-02-11 17:56:02.721680,approved,
1,9,Jivkorbhai Lallubhai High School,Extracted from OpenStreetMap,"Lala Lajpat Rai Marg, Maninagar, Ahmedabad",Ahmedabad,22.9987803,72.6026493,True,2026-02-11 17:56:02.721680,approved,
1,11,Govind Cycles,Extracted from OpenStreetMap,"Lala Lajpat Rai Marg, Maninagar, Ahmedabad",Ahmedabad,22.9990897,72.6016251,True,2026-02-11 17:56:02.721680,approved,
1,9,KK Shah Jarodwala Science College,Extracted from OpenStreetMap,"Lala Lajpat Rai Marg, Maninagar, Ahmedabad",Ahmedabad,22.998722,72.6030289,True,2026-02-11 17:56:02.721680,approved,
1,6,Rambaug Post Office,Extracted from OpenStreetMap,"BRTS Route, Rambag, Ahmedabad",Ahmedabad,22.9983828,72.5960246,True,2026-02-11 17:56:02.721680,approved,
1,11,Shree Swaminarayan Temple Gadi Sansthan,Extracted from OpenStreetMap,"BRTS Route, Maninagar, Ahmedabad",Ahmedabad,22.9955398,72.6107331,True,2026-02-11 17:56:02.721680,approved,
1,11,Ambaji Mata Temple,Extracted from OpenStreetMap,"Uttam nagar park road, Maninagar, Ahmedabad",Ahmedabad,22.9912494,72.6083788,True,2026-02-11 17:56:02.721680,approved,
1,11,Uttamnagar Garden (Public Park),Extracted from OpenStreetMap,"Uttam nagar park road, Maninagar, Ahmedabad",Ahmedabad,22.9921976,72.606752,True,2026-02-11 17:56:02.721680,approved,
1,11,Baba Ramdev Pir Temple,Extracted from OpenStreetMap,"Uttam nagar park road, Maninagar, Ahmedabad",Ahmedabad,22.992009,72.605944,True,2026-02-11 17:56:02.721680,approved,
1,9,Maneklal Jethalal Public Library,Extracted from OpenStreetMap,"Uttam nagar park road, Maninagar, Ahmedabad",Ahmedabad,22.9915868,72.6073361,True,2026-02-11 17:56:02.721680,approved,
1,11,Ram Krishna Temple,Extracted from OpenStreetMap,"Uttam nagar park road, Maninagar, Ahmedabad",Ahmedabad,22.9916559,72.6062149,True,2026-02-11 17:56:02.721680,approved,
1,11,Shiv Mandir (Temple of Lord Shiva),Extracted from OpenStreetMap,"Uttam nagar park road, Maninagar, Ahmedabad",Ahmedabad,22.9915288,72.6063779,True,2026-02-11 17:56:02.721680,approved,
1,11,Mother Dairy,Extracted from OpenStreetMap,"Satya Marg, Bodakdev, Ahmedabad",Ahmedabad,23.0355267,72.5154344,True,2026-02-11 17:56:02.721680,approved,
1,9,Navchetan School,Extracted from OpenStreetMap,"Netaji Subhash Chandra Road, Paldi, Ahmedabad",Ahmedabad,23.0152445,72.5630784,True,2026-02-11 17:56:02.721680,approved,
1,3,Rajhans Cinemas,Extracted from OpenStreetMap,"Ravishankar Maharaj Road, Ahmedabad",Ahmedabad,23.0664215,72.5316963,True,2026-02-11 17:56:02.721680,approved,
1,9,Karmachari Shiksan Tirth,Extracted from OpenStreetMap,"Chanakyapuri Flyover, Karmachari Nagar, Ahmedabad",Ahmedabad,23.064931,72.5415796,True,2026-02-11 17:56:02.721680,approved,
1,11,Panchdev Mahadev Mandir,Extracted from OpenStreetMap,"Chanakyapuri Flyover, Karmachari Nagar, Ahmedabad",Ahmedabad,23.0654461,72.5424404,True,2026-02-11 17:56:02.721680,approved,
1,9,M B Patel Gyanjyot High School,Extracted from OpenStreetMap,"Chanakyapuri Flyover, Karmachari Nagar, Ahmedabad",Ahmedabad,23.0702999,72.5460531,True,2026-02-11 17:56:02.721680,approved,
1,9,Gyanda Girls High School,Extracted from OpenStreetMap,"CHANDLODIA STATION ROAD, Ranip, Ahmedabad",Ahmedabad,23.072279,72.5479789,True,2026-02-11 17:56:02.721680,approved,
1,9,Nutan Vidya Vihar,Extracted from OpenStreetMap,"Chanakyapuri Flyover, Karmachari Nagar, Ahmedabad",Ahmedabad,23.0681554,72.5428774,True,2026-02-11 17:56:02.721680,approved,
1,4,Real Paprika,Extracted from OpenStreetMap,"120 Feet Ring Road, Ambawadi, Ahmedabad",Ahmedabad,23.0212619,72.543503,True,2026-02-11 17:56:02.721680,approved,
1,11,SPEC INDIA,Extracted from OpenStreetMap,"Commerce College Road, Gulbai tekra, Ahmedabad",Ahmedabad,23.0366895,72.5616924,True,2026-02-11 17:56:02.721680,approved,
1,11,"Khodiyar Temple, New Ranip",Extracted from OpenStreetMap,"Godrej Garden city Road, Ahmedabad",Ahmedabad,23.0925942,72.5664534,True,2026-02-11 17:56:02.721680,approved,
1,11,Tagore Hall,Extracted from OpenStreetMap,"Netaji Subhash Chandra Road, Kochrab, Ahmedabad",Ahmedabad,23.012914,72.5710792,True,2026-02-11 17:56:02.721680,approved,
1,11,Navrangpura,Extracted from OpenStreetMap,"Commerce College Road, Gulbai tekra, Ahmedabad",Ahmedabad,23.0355882,72.5641854,True,2026-02-11 17:56:02.721680,approved,
1,11,All India Radio ( Ahmedabad Center ),Extracted from OpenStreetMap,"Chimanlal Girdharlal Road, Usmanpura, Ahmedabad",Ahmedabad,23.039799,72.5687134,True,2026-02-11 17:56:02.721680,approved,
1,5,Ahmedabad District Cooperative Bank,Extracted from OpenStreetMap,"Income Tax Flyover, Usmanpura, Ahmedabad",Ahmedabad,23.0406536,72.5713107,True,2026-02-11 17:56:02.721680,approved,
1,11,Khamasa Parsi Agiyari,Extracted from OpenStreetMap,"Swami Vivekananda Road, Khadia, Ahmedabad",Ahmedabad,23.0212928,72.5847376,True,2026-02-11 17:56:02.721680,approved,
1,4,Gol Limbda Bhajiya and Nashta House,Extracted from OpenStreetMap,"Danapith Road, Manek Chowk, Ahmedabad",Ahmedabad,23.0200882,72.5860331,True,2026-02-11 17:56:02.721680,approved,
1,6,Ahmedabad Jilla Panchayat Office,Extracted from OpenStreetMap,"Relief Road, Manek Chowk, Ahmedabad",Ahmedabad,23.0245625,72.5803047,True,2026-02-11 17:56:02.721680,approved,
1,5,"The State Bank of India, Ahmedabad Office",Extracted from OpenStreetMap,"Swami Vivekananda Road, Khadia, Ahmedabad",Ahmedabad,23.0245389,72.579428,True,2026-02-11 17:56:02.721680,approved,
1,2,Ellisbridge Police Station,Extracted from OpenStreetMap,"Ashram Road, Paldi, Ahmedabad",Ahmedabad,23.022886,72.5716416,True,2026-02-11 17:56:02.721680,approved,
1,9,"British Library, Ahmedabad",Extracted from OpenStreetMap,"Netaji Subhash Chandra Road, Kochrab, Ahmedabad",Ahmedabad,23.0241291,72.55992,True,2026-02-11 17:56:02.721680,approved,
1,7,CEPT University Parking Space,Extracted from OpenStreetMap,"University Road, Usmanpura, Ahmedabad",Ahmedabad,23.0385409,72.5505639,True,2026-02-11 17:56:02.721680,approved,
1,11,Ahmedabad ni Gufa,Extracted from OpenStreetMap,"120 Feet Ring Road, Gulbai tekra, Ahmedabad",Ahmedabad,23.0362323,72.5496859,True,2026-02-11 17:56:02.721680,approved,
1,4,Zen Cafe,Extracted from OpenStreetMap,"120 Feet Ring Road, Gulbai tekra, Ahmedabad",Ahmedabad,23.0362229,72.5494261,True,2026-02-11 17:56:02.721680,approved,
1,4,Barbeque Nation,Extracted from OpenStreetMap,"Drive-in Road, Bodakdev, Ahmedabad",Ahmedabad,23.0480405,72.526862,True,2026-02-11 17:56:02.721680,approved,
1,4,Cafe Coffee Day,Extracted from OpenStreetMap,"Chimanlal Girdharlal Road, Ambawadi, Ahmedabad",Ahmedabad,23.0329764,72.5600005,True,2026-02-11 17:56:02.721680,approved,
1,5,Citibank,Extracted from OpenStreetMap,"Chimanlal Girdharlal Road, Ambawadi, Ahmedabad",Ahmedabad,23.0337365,72.5608865,True,2026-02-11 17:56:02.721680,approved,
1,11,Induben Khakhrawala,Extracted from OpenStreetMap,"Umashankar Joshi Marg, Gulbai tekra, Ahmedabad",Ahmedabad,23.0325848,72.5613239,True,2026-02-11 17:56:02.721680,approved,
1,5,"The State Bank of India, Ahmedabad Office",Extracted from OpenStreetMap,"Umashankar Joshi Marg, Gulbai tekra, Ahmedabad",Ahmedabad,23.0328329,72.5598654,True,2026-02-11 17:56:02.721680,approved,
1,11,MAAC Studio,Extracted from OpenStreetMap,"Chimanlal Girdharlal Road, Ambawadi, Ahmedabad",Ahmedabad,23.0336976,72.5608424,True,2026-02-11 17:56:02.721680,approved,
1,11,Jain Temple,Extracted from OpenStreetMap,"St. Xavier's College Road, Ambawadi, Ahmedabad",Ahmedabad,23.0333137,72.5599824,True,2026-02-11 17:56:02.721680,approved,
1,5,Kotak Mahindra Bank,Extracted from OpenStreetMap,"Chimanlal Girdharlal Road, Ambawadi, Ahmedabad",Ahmedabad,23.0331142,72.5599842,True,2026-02-11 17:56:02.721680,approved,
1,8,Romano,Extracted from OpenStreetMap,"Umashankar Joshi Marg, Gulbai tekra, Ahmedabad",Ahmedabad,23.0328013,72.5603885,True,2026-02-11 17:56:02.721680,approved,
1,8,Chanel,Extracted from OpenStreetMap,"Chimanlal Girdharlal Road, Ambawadi, Ahmedabad",Ahmedabad,23.0340092,72.5601894,True,2026-02-11 17:56:02.721680,approved,
1,6,Vikram A. Sarabhai Community Science Centre,Extracted from OpenStreetMap,"120 Feet Ring Road, Gulbai tekra, Ahmedabad",Ahmedabad,23.0366663,72.5492165,True,2026-02-11 17:56:02.721680,approved,
1,11,Sai Baba Temple,Extracted from OpenStreetMap,"Airport Road, Ambavadi / kubernagar, Ahmedabad",Ahmedabad,23.0804158,72.6203895,True,2026-02-11 17:56:02.721680,approved,
1,2,Sardarnagar Police Station,Extracted from OpenStreetMap,"Airport Road, Ambavadi / kubernagar, Ahmedabad",Ahmedabad,23.0804289,72.620522,True,2026-02-11 17:56:02.721680,approved,
1,11,Celebrus Capital,Extracted from OpenStreetMap,"Service road - Sarkhej Gandhinagar Highway, Bodakdev, Ahmedabad",Ahmedabad,23.0510118,72.5188134,True,2026-02-11 17:56:02.721680,approved,
1,11,Commodity Online India Limited,Extracted from OpenStreetMap,"Service road - Sarkhej Gandhinagar Highway, Bodakdev, Ahmedabad",Ahmedabad,23.0516211,72.5190509,True,2026-02-11 17:56:02.721680,approved,
1,3,"PVR, acropolis mall",Extracted from OpenStreetMap,"Thaltej Road, Thaltej, Ahmedabad",Ahmedabad,23.0490934,72.5160613,True,2026-02-11 17:56:02.721680,approved,
1,2,kalupur Police Station,Extracted from OpenStreetMap,"Relief Road, Revdi Bazar, Ahmedabad",Ahmedabad,23.0280667,72.5938493,True,2026-02-11 17:56:02.721680,approved,
1,11,Dariyakhan Ghummaj,Extracted from OpenStreetMap,"Dariyakhan Gumaj road, Dudheshwar, Ahmedabad",Ahmedabad,23.0526575,72.5867794,True,2026-02-11 17:56:02.721680,approved,
1,11,Sheikh Mohimmad atik,Extracted from OpenStreetMap,"Gandhi Road, Manek Chowk, Ahmedabad",Ahmedabad,23.0243077,72.5837441,True,2026-02-11 17:56:02.721680,approved,
1,11,talsingh,Extracted from OpenStreetMap,"120 Feet Ring Road, Gulbai tekra, Ahmedabad",Ahmedabad,23.0263991,72.5443504,True,2026-02-11 17:56:02.721680,approved,
1,11,master wada paav,Extracted from OpenStreetMap,"120 Feet Ring Road, Gulbai tekra, Ahmedabad",Ahmedabad,23.0260866,72.5440367,True,2026-02-11 17:56:02.721680,approved,
1,11,sureshbhai prajapati,Extracted from OpenStreetMap,"120 Feet Ring Road, Gulbai tekra, Ahmedabad",Ahmedabad,23.0230239,72.5431753,True,2026-02-11 17:56:02.721680,approved,
1,11,login,Extracted from OpenStreetMap,"Drive-in Road, Usmanpura, Ahmedabad",Ahmedabad,23.0425653,72.5497189,True,2026-02-11 17:56:02.721680,approved,
1,11,login,Extracted from OpenStreetMap,"Drive-in Road, Usmanpura, Ahmedabad",Ahmedabad,23.0425341,72.5503049,True,2026-02-11 17:56:02.721680,approved,
1,11,have a nice day,Extracted from OpenStreetMap,"Drive-in Road, Usmanpura, Ahmedabad",Ahmedabad,23.0422756,72.5506152,True,2026-02-11 17:56:02.721680,approved,
1,11,R.K.OMLET,Extracted from OpenStreetMap,Ahmedabad,Ahmedabad,23.0454711,72.5517948,True,2026-02-11 17:56:02.721680,approved,
1,11,Janta,Extracted from OpenStreetMap,"Gurukul Road, Vishram Marg, Memnagar, Ahmedabad",Ahmedabad,23.0479379,72.5337283,True,2026-02-11 17:56:02.721680,approved,
1,11,new rashtriya bhajiya house,Extracted from OpenStreetMap,"Ashram Road, Kochrab, Ahmedabad",Ahmedabad,23.0364058,72.5692215,True,2026-02-11 17:56:02.721680,approved,
1,11,krishna cold drinks,Extracted from OpenStreetMap,"Kasturba Gandhi Road, Madhupura, Ahmedabad",Ahmedabad,23.0401345,72.5795927,True,2026-02-11 17:56:02.721680,approved,
1,4,janta bakery,Extracted from OpenStreetMap,"Kasturba Gandhi Road, Madhupura, Ahmedabad",Ahmedabad,23.036703,72.5797316,True,2026-02-11 17:56:02.721680,approved,
1,4,rehmati bakery,Extracted from OpenStreetMap,"Ashram Road, Kochrab, Ahmedabad",Ahmedabad,23.037044,72.5690405,True,2026-02-11 17:56:02.721680,approved,
1,11,happiness,Extracted from OpenStreetMap,"Drive-in Road, Usmanpura, Ahmedabad",Ahmedabad,23.0427571,72.5496027,True,2026-02-11 17:56:02.721680,approved,
1,4,bhogilal mulchand,Extracted from OpenStreetMap,"Ashram Road, Kochrab, Ahmedabad",Ahmedabad,23.0368824,72.5694452,True,2026-02-11 17:56:02.721680,approved,
1,2,saviour annexe hospital,Extracted from OpenStreetMap,"St. Xavier's College Road, Ambawadi, Ahmedabad",Ahmedabad,23.0368587,72.5699511,True,2026-02-11 17:56:02.721680,approved,
1,11,super tea stall,Extracted from OpenStreetMap,"Income Tax Flyover, Usmanpura, Ahmedabad",Ahmedabad,23.0376364,72.569816,True,2026-02-11 17:56:02.721680,approved,
1,11,shri shankar bhuvan nashta house,Extracted from OpenStreetMap,"Gandhi Bridge, Usmanpura, Ahmedabad",Ahmedabad,23.0398738,72.5779042,True,2026-02-11 17:56:02.721680,approved,
1,11,barley water shop,Extracted from OpenStreetMap,"120 Feet Ring Road, Ahmedabad",Ahmedabad,23.0422114,72.549159,True,2026-02-11 17:56:02.721680,approved,
1,11,navrang restuarant,Extracted from OpenStreetMap,"120 Feet Ring Road, Naranpura, Ahmedabad",Ahmedabad,23.0426527,72.5492686,True,2026-02-11 17:56:02.721680,approved,
1,11,jalaram parontha house,Extracted from OpenStreetMap,"120 Feet Ring Road, Naranpura, Ahmedabad",Ahmedabad,23.0426291,72.549319,True,2026-02-11 17:56:02.721680,approved,
1,11,punjabi flavours,Extracted from OpenStreetMap,"120 Feet Ring Road, Naranpura, Ahmedabad",Ahmedabad,23.0426338,72.5493001,True,2026-02-11 17:56:02.721680,approved,
1,4,bherunath jain chavana house,Extracted from OpenStreetMap,"Kasturba Gandhi Road, Madhupura, Ahmedabad",Ahmedabad,23.039816,72.5798143,True,2026-02-11 17:56:02.721680,approved,
1,4,manhar doodh ghar,Extracted from OpenStreetMap,"Kasturba Gandhi Road, Madhupura, Ahmedabad",Ahmedabad,23.0385763,72.579821,True,2026-02-11 17:56:02.721680,approved,
1,11,dhanlakshmi fruit stall,Extracted from OpenStreetMap,"RiverFront Road, Ahmedabad",Ahmedabad,23.0345651,72.5796656,True,2026-02-11 17:56:02.721680,approved,
1,4,rehmati bakery,Extracted from OpenStreetMap,"Ashram Road, Kochrab, Ahmedabad",Ahmedabad,23.0371194,72.5691251,True,2026-02-11 17:56:02.721680,approved,
1,11,Amul,Extracted from OpenStreetMap,"Drive-in Road, Vastrapur, Ahmedabad",Ahmedabad,23.0440918,72.5472223,True,2026-02-11 17:56:02.721680,approved,
1,4,Shreeji krupa vadapav,Extracted from OpenStreetMap,"120 Feet Ring Road, Ahmedabad",Ahmedabad,23.0423379,72.549193,True,2026-02-11 17:56:02.721680,approved,
1,11,facebook restuarant,Extracted from OpenStreetMap,"120 Feet Ring Road, Naranpura, Ahmedabad",Ahmedabad,23.0426661,72.5492595,True,2026-02-11 17:56:02.721680,approved,
1,11,R K vadapav,Extracted from OpenStreetMap,"Drive-in Road, Usmanpura, Ahmedabad",Ahmedabad,23.0424164,72.5492615,True,2026-02-11 17:56:02.721680,approved,
1,4,rasranjan,Extracted from OpenStreetMap,"120 Feet Ring Road, Ahmedabad",Ahmedabad,23.042291,72.5487336,True,2026-02-11 17:56:02.721680,approved,
1,4,McDonald's,Extracted from OpenStreetMap,"120 Feet Ring Road, Ahmedabad",Ahmedabad,23.0423816,72.5486525,True,2026-02-11 17:56:02.721680,approved,
1,11,Mukhwaas,Extracted from OpenStreetMap,"Gandhi Road, Manek Chowk, Ahmedabad",Ahmedabad,23.0241153,72.5871222,True,2026-02-11 17:56:02.721680,approved,
1,4,Asharfilal Kulfi,Extracted from OpenStreetMap,"120 Feet Ring Road, Naranpura, Ahmedabad",Ahmedabad,23.0426757,72.5492422,True,2026-02-11 17:56:02.721680,approved,
1,11,Yoga Rhythms,Extracted from OpenStreetMap,"Manubhai Jadhani Marg, Paldi, Ahmedabad",Ahmedabad,23.0114918,72.5553629,True,2026-02-11 17:56:02.721680,approved,
1,7,Hindustan Petroleum Station,Extracted from OpenStreetMap,"Ashram Road, Paldi, Ahmedabad",Ahmedabad,23.0120486,72.5638517,True,2026-02-11 17:56:02.721680,approved,
1,11,Bhadra Taxi Stand,Extracted from OpenStreetMap,"Rustom Cama Marg, Manek Chowk, Ahmedabad",Ahmedabad,23.0271947,72.5801019,True,2026-02-11 17:56:02.721680,approved,
1,5,Central Bank of India,Extracted from OpenStreetMap,"Rustom Cama Marg, Manek Chowk, Ahmedabad",Ahmedabad,23.0274353,72.5809242,True,2026-02-11 17:56:02.721680,approved,
1,4,Ghandi Cold Drink House,Extracted from OpenStreetMap,"Gandhi Road, Manek Chowk, Ahmedabad",Ahmedabad,23.0246187,72.5828928,True,2026-02-11 17:56:02.721680,approved,
1,11,Gita Mandir,Extracted from OpenStreetMap,"For Bus only, Sherkotda, Ahmedabad",Ahmedabad,23.0147506,72.5911761,True,2026-02-11 17:56:02.721680,approved,
1,5,HDFC Bank Paldi Branch,Extracted from OpenStreetMap,"Chimanlal Girdharlal Road, Paldi, Ahmedabad",Ahmedabad,23.0137058,72.559847,True,2026-02-11 17:56:02.721680,approved,
1,5,HDFC Bank Relief Road Branch,Extracted from OpenStreetMap,"Relief Road, Manek Chowk, Ahmedabad",Ahmedabad,23.026296,72.5819103,True,2026-02-11 17:56:02.721680,approved,
1,2,Karanj Police Station,Extracted from OpenStreetMap,"Relief Road, Manek Chowk, Ahmedabad",Ahmedabad,23.0245097,72.5820394,True,2026-02-11 17:56:02.721680,approved,
1,4,Lucky Tea Shop,Extracted from OpenStreetMap,"Rustom Cama Marg, Manek Chowk, Ahmedabad",Ahmedabad,23.027562,72.5811204,True,2026-02-11 17:56:02.721680,approved,
1,4,Naeeka,Extracted from OpenStreetMap,"Airport Road, Shahibaug, Ahmedabad",Ahmedabad,23.0552316,72.5908571,True,2026-02-11 17:56:02.721680,approved,
1,4,Nishat,Extracted from OpenStreetMap,"Relief Road, Manek Chowk, Ahmedabad",Ahmedabad,23.0248713,72.5829376,True,2026-02-11 17:56:02.721680,approved,
1,4,Nishat,Extracted from OpenStreetMap,"Gandhi Road, Manek Chowk, Ahmedabad",Ahmedabad,23.0248607,72.5830856,True,2026-02-11 17:56:02.721680,approved,
1,4,Paramount,Extracted from OpenStreetMap,"Relief Road, Manek Chowk, Ahmedabad",Ahmedabad,23.0245678,72.5823659,True,2026-02-11 17:56:02.721680,approved,
1,7,Indian Oil,Extracted from OpenStreetMap,"Babu Jagjivanram Flyover, Ahmedabad",Ahmedabad,23.0396523,72.5955759,True,2026-02-11 17:56:02.721680,approved,
1,4,Relief Cyber Cafe,Extracted from OpenStreetMap,"Relief Road, Manek Chowk, Ahmedabad",Ahmedabad,23.0263181,72.5830356,True,2026-02-11 17:56:02.721680,approved,
1,11,fish market,Extracted from OpenStreetMap,"Gandhi Road, Manek Chowk, Ahmedabad",Ahmedabad,23.0247302,72.5841473,True,2026-02-11 17:56:02.721680,approved,
1,11,meat market,Extracted from OpenStreetMap,"Gandhi Road, Manek Chowk, Ahmedabad",Ahmedabad,23.0247665,72.5834189,True,2026-02-11 17:56:02.721680,approved,
1,11,Maninagar Bus stop,Extracted from OpenStreetMap,"Hatkeshwar Khokhra Flyover, Khokhra, Ahmedabad",Ahmedabad,22.99746,72.6259649,True,2026-02-11 17:56:02.721680,approved,
1,11,Maninagar Railway Station,Extracted from OpenStreetMap,"Lala Lajpat Rai Marg, Maninagar, Ahmedabad",Ahmedabad,22.9986995,72.6109437,True,2026-02-11 17:56:02.721680,approved,
1,11,Naroda Gam,Extracted from OpenStreetMap,"Naroda Gam Bus Station, Naroda, Ahmedabad",Ahmedabad,23.0770964,72.6558075,True,2026-02-11 17:56:02.721680,approved,
1,11,Ahmedabad,Extracted from OpenStreetMap,"Gandhi Road, Revdi Bazar, Ahmedabad",Ahmedabad,23.0218734,72.5984903,True,2026-02-11 17:56:02.721680,approved,
1,11,Lal Darwaja AMTS Bus Stop,Extracted from OpenStreetMap,"Sabarmati Riverfront Promenade, Dudheshwar, Ahmedabad",Ahmedabad,23.0241902,72.5785562,True,2026-02-11 17:56:02.721680,approved,
1,8,Bopal Vegetable Market,Extracted from OpenStreetMap,"Bopal-Ghuma road, Ghuma, Ahmedabad",Ahmedabad,23.0307489,72.4718735,True,2026-02-11 17:56:02.721680,approved,
1,6,Loving Community,Extracted from OpenStreetMap,"RTO Road, Rabari Colony, Ahmedabad",Ahmedabad,22.9994873,72.6442136,True,2026-02-11 17:56:02.721680,approved,
1,6,Jamalpur,Extracted from OpenStreetMap,"Sabarmati River front Road, Bhavna colony, Ahmedabad",Ahmedabad,23.0057337,72.5740652,True,2026-02-11 17:56:02.721680,approved,
1,11,TM Systems Pvt. Ltd.,Extracted from OpenStreetMap,"Krupa Shankar Joshi Marg, Ambawadi, Ahmedabad",Ahmedabad,23.0310817,72.5624122,True,2026-02-11 17:56:02.721680,approved,
1,7,Adani CNG Gas Station,Extracted from OpenStreetMap,"Ashok Bhatt Flyover, Behrampura, Ahmedabad",Ahmedabad,23.011445,72.5864365,True,2026-02-11 17:56:02.721680,approved,
1,11,FOLO,Extracted from OpenStreetMap,"Drive-in Road, Vastrapur, Ahmedabad",Ahmedabad,23.0470793,72.5374493,True,2026-02-11 17:56:02.721680,approved,
1,4,Jasuben Pizza,Extracted from OpenStreetMap,"Surendra Mangaldas Road, Ambawadi, Ahmedabad",Ahmedabad,23.0206812,72.5540845,True,2026-02-11 17:56:02.721680,approved,
1,11,Dharmeshawar Mahadev Temple,Extracted from OpenStreetMap,"DHARMESHWAR ROAD, Sabarmati, Ahmedabad",Ahmedabad,23.0784656,72.5916738,True,2026-02-11 17:56:02.721680,approved,
1,11,Jain Derasar,Extracted from OpenStreetMap,"DHARMESHWAR ROAD, Sabarmati, Ahmedabad",Ahmedabad,23.0803221,72.5922625,True,2026-02-11 17:56:02.721680,approved,
1,2,Geeta Maternity Hospital,Extracted from OpenStreetMap,"Bulkhidas Road, Sabarmati, Ahmedabad",Ahmedabad,23.0836049,72.5901213,True,2026-02-11 17:56:02.721680,approved,
1,11,Ramji Mandir,Extracted from OpenStreetMap,"Bulkhidas Road, Sabarmati, Ahmedabad",Ahmedabad,23.0836988,72.5895182,True,2026-02-11 17:56:02.721680,approved,
1,11,Vaishno Devi Mataji Mandir,Extracted from OpenStreetMap,"BULKHIDAS ROAD, Sabarmati, Ahmedabad",Ahmedabad,23.0790305,72.5895455,True,2026-02-11 17:56:02.721680,approved,
1,2,Sabarmati Development Society Sanchalit Sheth Shri Pukhraj Raichand General Hospital,Extracted from OpenStreetMap,"Bulkhidas Road, Sabarmati, Ahmedabad",Ahmedabad,23.0829627,72.5906964,True,2026-02-11 17:56:02.721680,approved,
1,5,HDFC Bank,Extracted from OpenStreetMap,"Bulkhidas Road, Sabarmati, Ahmedabad",Ahmedabad,23.0835179,72.5909029,True,2026-02-11 17:56:02.721680,approved,
1,4,MAHARAJ Food Corner,Extracted from OpenStreetMap,"Bulkhidas Road, Sabarmati, Ahmedabad",Ahmedabad,23.0839448,72.5892158,True,2026-02-11 17:56:02.721680,approved,
1,5,Gol Bank,Extracted from OpenStreetMap,"Bulkhidas Road, Sabarmati, Ahmedabad",Ahmedabad,23.0834501,72.5888148,True,2026-02-11 17:56:02.721680,approved,
1,5,Bank of Baroda,Extracted from OpenStreetMap,"Bulkhidas Road, Sabarmati, Ahmedabad",Ahmedabad,23.0825491,72.5900739,True,2026-02-11 17:56:02.721680,approved,
1,3,radhe,Extracted from OpenStreetMap,"SH1, Ahmedabad",Ahmedabad,22.5531867,72.1984565,True,2026-02-11 17:56:02.721680,approved,
1,2,GCS Medical College Hospital and Research Centre,Extracted from OpenStreetMap,"Doctor Ambedkar Flyover, Asarwa, Ahmedabad",Ahmedabad,23.0389267,72.6107232,True,2026-02-11 17:56:02.721680,approved,
1,11,Adidas,Extracted from OpenStreetMap,"100 Ft. Road, Jodhpur, Ahmedabad",Ahmedabad,23.0141932,72.5291592,True,2026-02-11 17:56:02.721680,approved,
1,11,sakuntal hat,Extracted from OpenStreetMap,"100 Ft. Road, Jodhpur, Ahmedabad",Ahmedabad,23.0140155,72.5283921,True,2026-02-11 17:56:02.721680,approved,
1,5,saswat bank,Extracted from OpenStreetMap,"100 Ft. Road, Jodhpur, Ahmedabad",Ahmedabad,23.0140747,72.5285852,True,2026-02-11 17:56:02.721680,approved,
1,11,CHANDLODIA MARKET,Extracted from OpenStreetMap,"Sundersingh Bhandari Flyover, Chanakyapuri, Ahmedabad",Ahmedabad,23.0891843,72.5415308,True,2026-02-11 17:56:02.721680,approved,
1,9,RC TECHNICAL INSTITUTE,Extracted from OpenStreetMap,"Rana Pratap Marg, Ahmedabad",Ahmedabad,23.0830479,72.5307242,True,2026-02-11 17:56:02.721680,approved,
1,2,SOLA POLICE STATION,Extracted from OpenStreetMap,"Rana Pratap Marg, Ahmedabad",Ahmedabad,23.0869563,72.5290719,True,2026-02-11 17:56:02.721680,approved,
1,4,waah,Extracted from OpenStreetMap,"Chimanlal Girdharlal Road, Ambawadi, Ahmedabad",Ahmedabad,23.0342579,72.5609251,True,2026-02-11 17:56:02.721680,approved,
1,4,havmor,Extracted from OpenStreetMap,"Chimanlal Girdharlal Road, Ambawadi, Ahmedabad",Ahmedabad,23.0342641,72.5608446,True,2026-02-11 17:56:02.721680,approved,
1,4,choice,Extracted from OpenStreetMap,"Chimanlal Girdharlal Road, Ambawadi, Ahmedabad",Ahmedabad,23.0344517,72.5612536,True,2026-02-11 17:56:02.721680,approved,
1,4,chocolate room,Extracted from OpenStreetMap,"Commerce College Road, Gulbai tekra, Ahmedabad",Ahmedabad,23.0358422,72.5617312,True,2026-02-11 17:56:02.721680,approved,
1,4,purohit,Extracted from OpenStreetMap,"Chimanlal Girdharlal Road, Ambawadi, Ahmedabad",Ahmedabad,23.0342345,72.5610096,True,2026-02-11 17:56:02.721680,approved,
1,3,manegbaug,Extracted from OpenStreetMap,"Vasna, Ahmedabad",Ahmedabad,23.0114634,72.550513,True,2026-02-11 17:56:02.721680,approved,
1,5,HDFC Bank,Extracted from OpenStreetMap,"Dharanidhar Flyover, Vasna, Ahmedabad",Ahmedabad,23.0098902,72.5465809,True,2026-02-11 17:56:02.721680,approved,
1,11,"HCP Design, Planning and Management Pvt. Ltd",Extracted from OpenStreetMap,"Pramukhswami Maharaj Riverfront Road, Usmanpura, Ahmedabad",Ahmedabad,23.0483975,72.5728674,True,2026-02-11 17:56:02.721680,approved,
1,11,TDW Furniture Private Limited,Extracted from OpenStreetMap,"Satellite Road, Ramdev nagar, Ahmedabad",Ahmedabad,23.0270936,72.5217681,True,2026-02-11 17:56:02.721680,approved,
1,9,RA.B.GI.U Muncipal Library,Extracted from OpenStreetMap,"Relief Road, Revdi Bazar, Ahmedabad",Ahmedabad,23.028543,72.5963088,True,2026-02-11 17:56:02.721680,approved,
1,9,B.N.Library,Extracted from OpenStreetMap,"Gandhi Road, Revdi Bazar, Ahmedabad",Ahmedabad,23.021184,72.594867,True,2026-02-11 17:56:02.721680,approved,
1,9,Chandrakant Baxi Muncipal Library,Extracted from OpenStreetMap,"132 Ft. Ring Road, Akhbar nagar, Ahmedabad",Ahmedabad,23.06356,72.566632,True,2026-02-11 17:56:02.721680,approved,
1,9,Dr.Shyama Prashad Mukharji Muncipal Library,Extracted from OpenStreetMap,"Shyamprasad Mukharji Flyover, Jivraj park, Ahmedabad",Ahmedabad,23.0111095,72.5316614,True,2026-02-11 17:56:02.721680,approved,
1,9,Gorvardhan AM Tripathi Muncipal Library,Extracted from OpenStreetMap,"Lala Lajpat Rai Marg, Maninagar, Ahmedabad",Ahmedabad,22.998323,72.602814,True,2026-02-11 17:56:02.721680,approved,
1,9,Jayotindra Dave Muncipal Library,Extracted from OpenStreetMap,"Kasturba Gandhi Road, Madhupura, Ahmedabad",Ahmedabad,23.043314,72.580155,True,2026-02-11 17:56:02.721680,approved,
1,9,Kavi Ramanlal Vasantlal Desai Muncipal Library,Extracted from OpenStreetMap,"Odhav Road, Ahmedabad",Ahmedabad,23.0256941,72.644105,True,2026-02-11 17:56:02.721680,approved,
1,9,Patel.K.K.Muni Library,Extracted from OpenStreetMap,"Rakhiyal Road, Naroda, Ahmedabad",Ahmedabad,23.074475,72.656816,True,2026-02-11 17:56:02.721680,approved,
1,9,Swa.Lalbhai Kundivala Muncipal Library,Extracted from OpenStreetMap,"Danapith Road, Manek Chowk, Ahmedabad",Ahmedabad,23.018496,72.586658,True,2026-02-11 17:56:02.721680,approved,
1,9,V.N.Shah Library,Extracted from OpenStreetMap,"Rakhial Road, Pratapnagar, Ahmedabad",Ahmedabad,23.021774,72.623712,True,2026-02-11 17:56:02.721680,approved,
1,5,canera bank,Extracted from OpenStreetMap,"Navrang Circle, Naranpura, Ahmedabad",Ahmedabad,23.0526603,72.5568708,True,2026-02-11 17:56:02.721680,approved,
1,4,Cafe Coffee Day,Extracted from OpenStreetMap,"Service road - Sarkhej Gandhinagar Highway, Ramdev nagar, Ahmedabad",Ahmedabad,23.0245018,72.5073318,True,2026-02-11 17:56:02.721680,approved,
1,4,Honest,Extracted from OpenStreetMap,"Judges Bunglow Road, Bodakdev, Ahmedabad",Ahmedabad,23.0385865,72.5126614,True,2026-02-11 17:56:02.721680,approved,
1,4,Subway,Extracted from OpenStreetMap,"Judges Bunglow Road, Bodakdev, Ahmedabad",Ahmedabad,23.0385075,72.512884,True,2026-02-11 17:56:02.721680,approved,
1,4,McDonald's,Extracted from OpenStreetMap,"Service road - Sarkhej Gandhinagar Highway, Ramdev nagar, Ahmedabad",Ahmedabad,23.0244178,72.507327,True,2026-02-11 17:56:02.721680,approved,
1,4,Havmor,Extracted from OpenStreetMap,"Service road - Sarkhej Gandhinagar Highway, Bodakdev, Ahmedabad",Ahmedabad,23.0381817,72.5122645,True,2026-02-11 17:56:02.721680,approved,
1,8,Star Bazaar,Extracted from OpenStreetMap,"Satellite Road, Ramdev nagar, Ahmedabad",Ahmedabad,23.0269648,72.5242142,True,2026-02-11 17:56:02.721680,approved,
1,7,Shell,Extracted from OpenStreetMap,"100 Ft. Road, Prahladnagar, Ahmedabad",Ahmedabad,23.0121167,72.5124778,True,2026-02-11 17:56:02.721680,approved,
1,5,Yes Bank,Extracted from OpenStreetMap,"100 Ft. Road, Prahladnagar, Ahmedabad",Ahmedabad,23.0119649,72.5130175,True,2026-02-11 17:56:02.721680,approved,
1,6,Shangrila Bunglows,Extracted from OpenStreetMap,"Bhagwat Vidyapeeth road, Sola, Ahmedabad",Ahmedabad,23.0568853,72.5089574,True,2026-02-11 17:56:02.721680,approved,
1,11,Jeet Tours & Travel,Extracted from OpenStreetMap,"Gandhi Road, Revdi Bazar, Ahmedabad",Ahmedabad,23.0264342,72.6001635,True,2026-02-11 17:56:02.721680,approved,
1,4,Nescafe,Extracted from OpenStreetMap,"Gujarat University Internal Road, Panjrapole, Ahmedabad",Ahmedabad,23.0371357,72.5443257,True,2026-02-11 17:56:02.721680,approved,
1,11,My dentist,Extracted from OpenStreetMap,"Ashram Road, Paldi, Ahmedabad",Ahmedabad,23.0084916,72.5611665,True,2026-02-11 17:56:02.721680,approved,
1,11,Swaminarayan ,Extracted from OpenStreetMap,"120 Feet Ring Road, Vasna, Ahmedabad",Ahmedabad,23.0055252,72.5522649,True,2026-02-11 17:56:02.721680,approved,
1,4,TGB,Extracted from OpenStreetMap,"Anjali Flyover, Vasna, Ahmedabad",Ahmedabad,23.005805,72.5552881,True,2026-02-11 17:56:02.721680,approved,
1,7,CNG Adani,Extracted from OpenStreetMap,"Ashram Road, Paldi, Ahmedabad",Ahmedabad,23.0135186,72.5644029,True,2026-02-11 17:56:02.721680,approved,
1,11,LIC bimanagar,Extracted from OpenStreetMap,"Satellite Road, Ambawadi, Ahmedabad",Ahmedabad,23.023492,72.5354261,True,2026-02-11 17:56:02.721680,approved,
1,11,Swaminarayan Temple Bavla,Extracted from OpenStreetMap,"SH74;144, Bavla",Ahmedabad,22.8342872,72.366148,True,2026-02-11 17:56:02.721680,approved,
1,11,Jignesh,Extracted from OpenStreetMap,"SH136, Ahmedabad",Ahmedabad,22.6437671,72.1973839,True,2026-02-11 17:56:02.721680,approved,
1,5,State Bank of India,Extracted from OpenStreetMap,"NH8, Thakkarabapa Nagar, Ahmedabad",Ahmedabad,23.0462917,72.6409003,True,2026-02-11 17:56:02.721680,approved,
1,2,shilpa medical store,Extracted from OpenStreetMap,"NH8, Thakkarabapa Nagar, Ahmedabad",Ahmedabad,23.047818,72.6371657,True,2026-02-11 17:56:02.721680,approved,
1,2,Vatva police,Extracted from OpenStreetMap,"Vatva-1 Road, Ahmedabad",Ahmedabad,22.9718545,72.6275,True,2026-02-11 17:56:02.721680,approved,
1,5,Dena Bank,Extracted from OpenStreetMap,"Swami Bapa Smruti Mandir Road, Ahmedabad",Ahmedabad,22.9713508,72.6273272,True,2026-02-11 17:56:02.721680,approved,
1,8,Manki children store,Extracted from OpenStreetMap,"Sardar Chowk, Thakkarabapa Nagar, Ahmedabad",Ahmedabad,23.0510386,72.6442794,True,2026-02-11 17:56:02.721680,approved,
1,6,Gujrat ind.dev.corporation,Extracted from OpenStreetMap,"Swami Bapa Smruti Mandir Road, Ahmedabad",Ahmedabad,22.9714302,72.6278851,True,2026-02-11 17:56:02.721680,approved,
1,6,GIDC office,Extracted from OpenStreetMap,"Swami Bapa Smruti Mandir Road, Ahmedabad",Ahmedabad,22.9714727,72.6278738,True,2026-02-11 17:56:02.721680,approved,
1,5,Kotak Mahindra Bank,Extracted from OpenStreetMap,"Income Tax Flyover, Usmanpura, Ahmedabad",Ahmedabad,23.0384792,72.5692563,True,2026-02-11 17:56:02.721680,approved,
1,4,Domino's,Extracted from OpenStreetMap,"Sardar Chowk, Thakkarabapa Nagar, Ahmedabad",Ahmedabad,23.051025,72.64396,True,2026-02-11 17:56:02.721680,approved,
1,4,TGB,Extracted from OpenStreetMap,"Sardar Chowk, Thakkarabapa Nagar, Ahmedabad",Ahmedabad,23.0510167,72.64456,True,2026-02-11 17:56:02.721680,approved,
1,4,Spoons n straws,Extracted from OpenStreetMap,"NH8, Thakkarabapa Nagar, Ahmedabad",Ahmedabad,23.0512085,72.643756,True,2026-02-11 17:56:02.721680,approved,
1,7,Cng Petrol pump,Extracted from OpenStreetMap,"Lal Bahadur Shastri Road, Sahijpur, Ahmedabad",Ahmedabad,23.0523451,72.6319464,True,2026-02-11 17:56:02.721680,approved,
1,8,Big Bazaar,Extracted from OpenStreetMap,"Kankaria Road, Sherkotda, Ahmedabad",Ahmedabad,23.0147236,72.5975122,True,2026-02-11 17:56:02.721680,approved,
1,4,McDonald's,Extracted from OpenStreetMap,"Kankaria Road, Sherkotda, Ahmedabad",Ahmedabad,23.0142097,72.597377,True,2026-02-11 17:56:02.721680,approved,
1,4,Subway,Extracted from OpenStreetMap,"Drive-in Road, Bodakdev, Ahmedabad",Ahmedabad,23.0464898,72.5294517,True,2026-02-11 17:56:02.721680,approved,
1,11,my tution,Extracted from OpenStreetMap,"Sola Road, Naranpura, Ahmedabad",Ahmedabad,23.0570698,72.5363549,True,2026-02-11 17:56:02.721680,approved,
1,11,ambe mataa mandir,Extracted from OpenStreetMap,"Sola Road, Karmachari Nagar, Ahmedabad",Ahmedabad,23.0594376,72.5365252,True,2026-02-11 17:56:02.721680,approved,
1,8,Jagdamba Sales Corporation,Extracted from OpenStreetMap,"Airport Road, Ambavadi / kubernagar, Ahmedabad",Ahmedabad,23.0857612,72.6301401,True,2026-02-11 17:56:02.721680,approved,
1,11,32 PEARLS Multispeciality Dental Clinic,Extracted from OpenStreetMap,"132 Ft. Ring Road, Naranpura, Ahmedabad",Ahmedabad,23.057131,72.549469,True,2026-02-11 17:56:02.721680,approved,
1,7,Petrol CNG pump,Extracted from OpenStreetMap,"Odhav Road, Ahmedabad",Ahmedabad,23.0219685,72.6508243,True,2026-02-11 17:56:02.721680,approved,
1,2,vizcare hospital,Extracted from OpenStreetMap,"Gota Road, Chanakyapuri, Ahmedabad",Ahmedabad,23.0997272,72.5363217,True,2026-02-11 17:56:02.721680,approved,
1,5,HDFC bank,Extracted from OpenStreetMap,"Vatva phase -2 road, Ahmedabad",Ahmedabad,22.9623509,72.6326626,True,2026-02-11 17:56:02.721680,approved,
1,2,Aryan's Villa💞,Extracted from OpenStreetMap,"SHAMALBHAI LALLUBHAI PATEL ROAD, Sabarmati, Ahmedabad",Ahmedabad,23.0882437,72.584299,True,2026-02-11 17:56:02.721680,approved,
1,11,Jain Nagar,Extracted from OpenStreetMap,"ACHER ROAD, Sabarmati, Ahmedabad",Ahmedabad,23.0886047,72.5844263,True,2026-02-11 17:56:02.721680,approved,
1,7,Esaar petrol pump,Extracted from OpenStreetMap,"SH7, Ahmedabad",Ahmedabad,23.4921781,72.0319807,True,2026-02-11 17:56:02.721680,approved,
1,2,Odhav police station (new building),Extracted from OpenStreetMap,"Sardar Patel Ring Road, Ahmedabad",Ahmedabad,23.0259396,72.6724978,True,2026-02-11 17:56:02.721680,approved,
1,11,Supratech Voluntary Blood Bank,Extracted from OpenStreetMap,"Drive-in Road, Bodakdev, Ahmedabad",Ahmedabad,23.0479402,72.5271143,True,2026-02-11 17:56:02.721680,approved,
1,6,Ramanand gurukul swastik hall,Extracted from OpenStreetMap,"Drive-in Road, Bodakdev, Ahmedabad",Ahmedabad,23.0479045,72.5267206,True,2026-02-11 17:56:02.721680,approved,
1,8,Reliance Smart,Extracted from OpenStreetMap,"Drive-in Road, Bodakdev, Ahmedabad",Ahmedabad,23.0475825,72.5265833,True,2026-02-11 17:56:02.721680,approved,
1,4,Atithi Dining Hall,Extracted from OpenStreetMap,"Judges Bunglow Road, Bodakdev, Ahmedabad",Ahmedabad,23.0381074,72.5138086,True,2026-02-11 17:56:02.721680,approved,
1,11,Bank of Baroda,Extracted from OpenStreetMap,"Drive-in Road, Bodakdev, Ahmedabad",Ahmedabad,23.0478572,72.526783,True,2026-02-11 17:56:02.721680,approved,
1,2,Sunflower Womens Endo Infertility and Hospital Pvt. Ltd.,Extracted from OpenStreetMap,"Drive-in Road, Vastrapur, Ahmedabad",Ahmedabad,23.0457576,72.5412888,True,2026-02-11 17:56:02.721680,approved,
1,2,little flower,Extracted from OpenStreetMap,"Drive-in Road, Bodakdev, Ahmedabad",Ahmedabad,23.0460963,72.533033,True,2026-02-11 17:56:02.721680,approved,
1,2,May Flower Womens Hospital Pvt. Ltd.,Extracted from OpenStreetMap,"Drive-in Road, Vastrapur, Ahmedabad",Ahmedabad,23.0455774,72.5419051,True,2026-02-11 17:56:02.721680,approved,
1,2,sunflower infertility clinic,Extracted from OpenStreetMap,"Drive-in Road, Vastrapur, Ahmedabad",Ahmedabad,23.0455615,72.541361,True,2026-02-11 17:56:02.721680,approved,
1,11,Viramgam,Extracted from OpenStreetMap,"SH7, Viramgam",Ahmedabad,23.1270255,72.0511173,True,2026-02-11 17:56:02.721680,approved,
1,7,CNG Hp petroleum,Extracted from OpenStreetMap,"NH47, Ahmedabad",Ahmedabad,22.6461786,72.2063059,True,2026-02-11 17:56:02.721680,approved,
1,11,Meghaninagar Char Rasta,Extracted from OpenStreetMap,"Sant Rohidas Road, Kalapi nagar, Ahmedabad",Ahmedabad,23.0544365,72.61801,True,2026-02-11 17:56:02.721680,approved,
1,9,"F D High School for Girls, Jamalpur",Extracted from OpenStreetMap,"Side Road, Bhavna colony, Ahmedabad",Ahmedabad,23.0119864,72.5831726,True,2026-02-11 17:56:02.721680,approved,
1,8,DMart,Extracted from OpenStreetMap,"Sardar Patel Ring Road, Ahmedabad",Ahmedabad,23.0552881,72.6711806,True,2026-02-11 17:56:02.721680,approved,
1,4,"Sabri Kathiyavadi,panjabi",Extracted from OpenStreetMap,"Nikol-Nava Naroda Road, Nava Naroda, Ahmedabad",Ahmedabad,23.0591783,72.6708433,True,2026-02-11 17:56:02.721680,approved,
1,11,D Mart,Extracted from OpenStreetMap,"132 Ft. Ring Road, Akhbar nagar, Ahmedabad",Ahmedabad,23.0680121,72.5761383,True,2026-02-11 17:56:02.721680,approved,
1,11,Relince Digital,Extracted from OpenStreetMap,"132 Ft. Ring Road, Akhbar nagar, Ahmedabad",Ahmedabad,23.0680414,72.5758088,True,2026-02-11 17:56:02.721680,approved,
1,8,Arved transcube Plaza,Extracted from OpenStreetMap,"132 Ft. Ring Road, Akhbar nagar, Ahmedabad",Ahmedabad,23.0679571,72.5760578,True,2026-02-11 17:56:02.721680,approved,
1,2,Hanspura/Dehgam naka police station,Extracted from OpenStreetMap,"SH68, Ahmedabad",Ahmedabad,23.08872,72.686768,True,2026-02-11 17:56:02.721680,approved,
1,4,AFC Garden Restaurant,Extracted from OpenStreetMap,"SH71, Ahmedabad",Ahmedabad,23.111054,72.6050699,True,2026-02-11 17:56:02.721680,approved,
1,11,cng,Extracted from OpenStreetMap,"Kasturba Gandhi Road, Madhupura, Ahmedabad",Ahmedabad,23.039025,72.580366,True,2026-02-11 17:56:02.721680,approved,
1,7,Petrol pump Nava Naroda,Extracted from OpenStreetMap,"Naroda-Dehgam Road, Nava Naroda, Ahmedabad",Ahmedabad,23.0797088,72.6678593,True,2026-02-11 17:56:02.721680,approved,
1,11,Under ground Parking,Extracted from OpenStreetMap,"Radhaswami Road, Ranip, Ahmedabad",Ahmedabad,23.0681437,72.5761887,True,2026-02-11 17:56:02.721680,approved,
1,4,Kabir Restaurant,Extracted from OpenStreetMap,"Nava Naroda Road, Nava Naroda, Ahmedabad",Ahmedabad,23.0795581,72.6690656,True,2026-02-11 17:56:02.721680,approved,
1,7,CNG Bharat petroleum,Extracted from OpenStreetMap,"Kasturba Gandhi Road, Madhupura, Ahmedabad",Ahmedabad,23.0400891,72.5781297,True,2026-02-11 17:56:02.721680,approved,
1,8,Half Ticket,Extracted from OpenStreetMap,"Chimanlal Girdharlal Road, Gulbai tekra, Ahmedabad",Ahmedabad,23.0379538,72.5617091,True,2026-02-11 17:56:02.721680,approved,
1,11,Liberty Showroom,Extracted from OpenStreetMap,"Commerce College Road, Usmanpura, Ahmedabad",Ahmedabad,23.0368527,72.5610186,True,2026-02-11 17:56:02.721680,approved,
1,11,Maruti Suzuki NEXA,Extracted from OpenStreetMap,"Service road - Sarkhej Gandhinagar Highway, Makarba, Sarkhej",Ahmedabad,23.0122697,72.503458,True,2026-02-11 17:56:02.721680,approved,
1,8,Half ticket,Extracted from OpenStreetMap,"Chimanlal Girdharlal Road, Ambawadi, Ahmedabad",Ahmedabad,23.0337539,72.5601493,True,2026-02-11 17:56:02.721680,approved,
1,3,Samarpan Paltry Plots,Extracted from OpenStreetMap,"Satellite Road, Ramdev nagar, Ahmedabad",Ahmedabad,23.0279896,72.5138775,True,2026-02-11 17:56:02.721680,approved,
1,9,SN Collage,Extracted from OpenStreetMap,"Satellite Road, Ramdev nagar, Ahmedabad",Ahmedabad,23.0283544,72.5148851,True,2026-02-11 17:56:02.721680,approved,
1,9,SN School,Extracted from OpenStreetMap,"Satellite Road, Ramdev nagar, Ahmedabad",Ahmedabad,23.0281673,72.514922,True,2026-02-11 17:56:02.721680,approved,
1,11,Gurukul,Extracted from OpenStreetMap,"Drive-in Road, Bodakdev, Ahmedabad",Ahmedabad,23.0457058,72.5268056,True,2026-02-11 17:56:02.721680,approved,
1,11,Muni Bapu Ashram,Extracted from OpenStreetMap,"Bopal - Sanand Bypass Road, Ahmedabad",Ahmedabad,23.0148133,72.3829577,True,2026-02-11 17:56:02.721680,approved,
1,9,Gujrat Vidhyapeeth,Extracted from OpenStreetMap,"Income Tax Flyover, Usmanpura, Ahmedabad",Ahmedabad,23.0441852,72.5692947,True,2026-02-11 17:56:02.721680,approved,
1,11,Shah E Alam Roza,Extracted from OpenStreetMap,"Shah Alam Road, Shah E Alam Roza, Ahmedabad",Ahmedabad,22.9940973,72.5895788,True,2026-02-11 17:56:02.721680,approved,
1,11,Jama Masjid,Extracted from OpenStreetMap,"Jawaharlal Nehru Road, Makarba, Sarkhej",Ahmedabad,22.9933887,72.5054614,True,2026-02-11 17:56:02.721680,approved,
1,6,Asarwa civil post office,Extracted from OpenStreetMap,"Hanuman sing road, Asarwa, Ahmedabad",Ahmedabad,23.0500117,72.6072412,True,2026-02-11 17:56:02.721680,approved,
1,2,"Kidny hospital , asarwa",Extracted from OpenStreetMap,"Hanuman sing road, Asarwa, Ahmedabad",Ahmedabad,23.0494133,72.6074852,True,2026-02-11 17:56:02.721680,approved,
1,2,"Gujarat Institute Of Nursing Education And Research , Asarwa ,Ahemedabad",Extracted from OpenStreetMap,"Hanuman sing road, Asarwa, Ahmedabad",Ahmedabad,23.0496453,72.6071588,True,2026-02-11 17:56:02.721680,approved,
1,2,Government Dental College and Hospital,Extracted from OpenStreetMap,"Jethabhai Parmar Garden Path, Girdharnagar, Ahmedabad",Ahmedabad,23.0499136,72.604565,True,2026-02-11 17:56:02.721680,approved,
1,9,"Government Dental College ,Ahemedabad",Extracted from OpenStreetMap,"Jethabhai Parmar Garden Path, Girdharnagar, Ahmedabad",Ahmedabad,23.0497247,72.6043173,True,2026-02-11 17:56:02.721680,approved,
1,9,"BJ Medical College ,Haripura -Asarwa",Extracted from OpenStreetMap,"Jethabhai Parmar Garden Path, Girdharnagar, Ahmedabad",Ahmedabad,23.0524472,72.6027712,True,2026-02-11 17:56:02.721680,approved,
1,11,Sai baba,Extracted from OpenStreetMap,"Kubernagar Road, Ambavadi / kubernagar, Ahmedabad",Ahmedabad,23.0887798,72.6500054,True,2026-02-11 17:56:02.721680,approved,
1,11,Sant nirankari Ashram,Extracted from OpenStreetMap,"Kubernagar Road, Ambavadi / kubernagar, Ahmedabad",Ahmedabad,23.0868773,72.6479573,True,2026-02-11 17:56:02.721680,approved,
1,3,Picnic Party Plot,Extracted from OpenStreetMap,"Naroda, Ahmedabad",Ahmedabad,23.0855359,72.6489696,True,2026-02-11 17:56:02.721680,approved,
1,3,Maya CINEMA -CLOSED,Extracted from OpenStreetMap,"MAYA cinema road, Ambavadi / kubernagar, Ahmedabad",Ahmedabad,23.0810593,72.6415185,True,2026-02-11 17:56:02.721680,approved,
1,8,Mahlaxmi papad,Extracted from OpenStreetMap,"Bazar road, Naroda, Ahmedabad",Ahmedabad,23.0739761,72.6416185,True,2026-02-11 17:56:02.721680,approved,
1,8,Kubernagar Main market - sindhi market,Extracted from OpenStreetMap,"Bazar road, Naroda, Ahmedabad",Ahmedabad,23.0731757,72.6414355,True,2026-02-11 17:56:02.721680,approved,
1,11,Changodar,Extracted from OpenStreetMap,"NH47, Ahmedabad",Ahmedabad,22.9402206,72.4567127,True,2026-02-11 17:56:02.721680,approved,
1,11,Lambha Mandir,Extracted from OpenStreetMap,"Lambha Mandir Road, Ahmedabad",Ahmedabad,22.9413497,72.5798073,True,2026-02-11 17:56:02.721680,approved,
1,11,Bhadra Kali Temple,Extracted from OpenStreetMap,"Swami Vivekananda Road, Khadia, Ahmedabad",Ahmedabad,23.0239807,72.5814992,True,2026-02-11 17:56:02.721680,approved,
1,11,Tata Mootrs,Extracted from OpenStreetMap,"Narol-Sarkhej Road, Ahmedabad",Ahmedabad,22.9923265,72.5366121,True,2026-02-11 17:56:02.721680,approved,
1,2,Vani Hospital & IVF center,Extracted from OpenStreetMap,"Mansarovar Road, Mehmdabad - Khokhra, Ahmedabad",Ahmedabad,22.99465,72.6157541,True,2026-02-11 17:56:02.721680,approved,
1,4,arbi,Extracted from OpenStreetMap,"Station Road, Revdi Bazar, Ahmedabad",Ahmedabad,23.030136,72.600163,True,2026-02-11 17:56:02.721680,approved,
1,2,Vani IVF Center,Extracted from OpenStreetMap,"Mansarovar Road, Mehmdabad - Khokhra, Ahmedabad",Ahmedabad,22.994662,72.615422,True,2026-02-11 17:56:02.721680,approved,
1,2,West Cost pharma,Extracted from OpenStreetMap,"Sundersingh Bhandari Flyover, Chanakyapuri, Ahmedabad",Ahmedabad,23.087526,72.536757,True,2026-02-11 17:56:02.721680,approved,
1,6,Raghunath Party Plot,Extracted from OpenStreetMap,"Sindhu Bhavan Road, Bodakdev, Ahmedabad",Ahmedabad,23.0407768,72.5065027,True,2026-02-11 17:56:02.721680,approved,
1,9,GCS Medical college,Extracted from OpenStreetMap,"Dr. Ambedkar Flyover, Asarwa, Ahmedabad",Ahmedabad,23.038409,72.611136,True,2026-02-11 17:56:02.721680,approved,
1,4,Cooking Culture,Extracted from OpenStreetMap,"Pakwan Flyover, Bodakdev, Ahmedabad",Ahmedabad,23.035392,72.5065,True,2026-02-11 17:56:02.721680,approved,
1,6,Saijpur post office,Extracted from OpenStreetMap,"Naroda Road, Sahijpur, Ahmedabad",Ahmedabad,23.0592677,72.6375916,True,2026-02-11 17:56:02.721680,approved,
1,6,Physical Research Laboratory,Extracted from OpenStreetMap,"Thaltej Road, Thaltej, Ahmedabad",Ahmedabad,23.0443457,72.4946035,True,2026-02-11 17:56:02.721680,approved,
1,2,Aalisha Clinic,Extracted from OpenStreetMap,"Tirupati Road, New Ranip, Ahmedabad",Ahmedabad,23.0858856,72.5638235,True,2026-02-11 17:56:02.721680,approved,
1,2,BalMukund Hospital,Extracted from OpenStreetMap,"Tirupati Road, New Ranip, Ahmedabad",Ahmedabad,23.0932069,72.5592841,True,2026-02-11 17:56:02.721680,approved,
1,7,South Bopal,Extracted from OpenStreetMap,"200ft. Gala Gymkhana Road, Ahmedabad",Ahmedabad,23.021803,72.4747707,True,2026-02-11 17:56:02.721680,approved,
1,8,readymadepocket,Extracted from OpenStreetMap,"Relief Road, Manek Chowk, Ahmedabad",Ahmedabad,23.0277198,72.5880275,True,2026-02-11 17:56:02.721680,approved,
1,11,Chandlodiya Temple,Extracted from OpenStreetMap,"Chandlodia Lake Road, New Ranip, Ahmedabad",Ahmedabad,23.0838579,72.5530656,True,2026-02-11 17:56:02.721680,approved,
1,2,S G Hospital Chandlodiya,Extracted from OpenStreetMap,"Jagatpur Road, New Ranip, Ahmedabad",Ahmedabad,23.0848906,72.5512244,True,2026-02-11 17:56:02.721680,approved,
1,4,HANDI HOTEL,Extracted from OpenStreetMap,"Ashram Road, Ranip, Ahmedabad",Ahmedabad,23.0659846,72.5827993,True,2026-02-11 17:56:02.721680,approved,
1,11,HARSHAL PUBLICATION,Extracted from OpenStreetMap,"Surendra Mangaldas Road, Kochrab, Ahmedabad",Ahmedabad,23.0228851,72.5718995,True,2026-02-11 17:56:02.721680,approved,
1,4,Little Italy,Extracted from OpenStreetMap,"NH147, Bodakdev, Ahmedabad",Ahmedabad,23.0324134,72.5082222,True,2026-02-11 17:56:02.721680,approved,
1,11,Jethabhai Parmar Garden Fountain,Extracted from OpenStreetMap,"Jethabhai Parmar Garden Path, Girdharnagar, Ahmedabad",Ahmedabad,23.0491143,72.600946,True,2026-02-11 17:56:02.721680,approved,
1,9,Satva Vikas School,Extracted from OpenStreetMap,"Sindhu Bhavan Road, Thaltej, Ahmedabad",Ahmedabad,23.0415757,72.4959141,True,2026-02-11 17:56:02.721680,approved,
1,4,Tandoorworkz,Extracted from OpenStreetMap,"Chimanlal Girdharlal Road, Ambawadi, Ahmedabad",Ahmedabad,23.0199957,72.5580704,True,2026-02-11 17:56:02.721680,approved,
1,11,State Bank Of India,Extracted from OpenStreetMap,"Gujarat University Internal Road, Panjrapole, Ahmedabad",Ahmedabad,23.0353395,72.5429261,True,2026-02-11 17:56:02.721680,approved,
1,4,Annapurna,Extracted from OpenStreetMap,"Ahmedabad-Mehmdavad-Nadiad Road, Ramol -Jantanagar, Ahmedabad",Ahmedabad,22.9818481,72.6317943,True,2026-02-11 17:56:02.721680,approved,
1,4,Gayatri,Extracted from OpenStreetMap,"Ahmedabad-Mehmdavad-Nadiad Road, Ramol -Jantanagar, Ahmedabad",Ahmedabad,22.9811933,72.6319432,True,2026-02-11 17:56:02.721680,approved,
1,4,Royal Pride,Extracted from OpenStreetMap,"Ahmedabad-Mehmdavad-Nadiad Road, Ramol -Jantanagar, Ahmedabad",Ahmedabad,22.9815706,72.6329291,True,2026-02-11 17:56:02.721680,approved,
1,11,Mahadev Temple,Extracted from OpenStreetMap,"Ahmadabad Vadodara Expressway, Ahmedabad",Ahmedabad,22.9853608,72.6321146,True,2026-02-11 17:56:02.721680,approved,
1,11,Chamunda Mata Temple,Extracted from OpenStreetMap,"Ahmadabad Vadodara Expressway, Khokhra, Ahmedabad",Ahmedabad,22.9861602,72.6310124,True,2026-02-11 17:56:02.721680,approved,
1,11,Saibaba Temple,Extracted from OpenStreetMap,"Ahmadabad Vadodara Expressway, Khokhra, Ahmedabad",Ahmedabad,22.9866323,72.6300604,True,2026-02-11 17:56:02.721680,approved,
1,11,Mahadev Temple,Extracted from OpenStreetMap,"SH3, Ahmedabad",Ahmedabad,22.9831015,72.6248105,True,2026-02-11 17:56:02.721680,approved,
1,11,Temple,Extracted from OpenStreetMap,"Ahmadabad Vadodara Expressway, Khokhra, Ahmedabad",Ahmedabad,22.9849403,72.6295687,True,2026-02-11 17:56:02.721680,approved,
1,2,Gujarat university police station,Extracted from OpenStreetMap,"Dr. Vikram Sarabhai Road, Panjrapole, Ahmedabad",Ahmedabad,23.0347446,72.5405988,True,2026-02-11 17:56:02.721680,approved,
1,2,Planet Women Fertility and Counseling,Extracted from OpenStreetMap,"120 Feet Ring Road, Gulbai tekra, Ahmedabad",Ahmedabad,23.0249306,72.5434079,True,2026-02-11 17:56:02.721680,approved,
1,8,"Payload Electronics Lab, Physical Research Laboratory",Extracted from OpenStreetMap,"Sindhu Bhavan Road, Thaltej, Ahmedabad",Ahmedabad,23.0442577,72.4954264,True,2026-02-11 17:56:02.721680,approved,
1,11,Fox Mandal,Extracted from OpenStreetMap,"Service road - Sarkhej Gandhinagar Highway, Makarba, Sarkhej",Ahmedabad,23.0121532,72.5037251,True,2026-02-11 17:56:02.721680,approved,
1,11,National Company Law Tribunal (NCLT) Ahmedabad Bench,Extracted from OpenStreetMap,"Sola Overbridge, Bhagvat, Ahmedabad",Ahmedabad,23.0550088,72.5167339,True,2026-02-11 17:56:02.721680,approved,
1,4,nilam snacks,Extracted from OpenStreetMap,"Sola Road, Naranpura, Ahmedabad",Ahmedabad,23.0550362,72.5398877,True,2026-02-11 17:56:02.721680,approved,
1,11,Art book center specialist in books on indian culture,Extracted from OpenStreetMap,"Surendra Mangaldas Road, Paldi, Ahmedabad",Ahmedabad,23.0216194,72.5686718,True,2026-02-11 17:56:02.721680,approved,
1,11,c point furniture,Extracted from OpenStreetMap,"Nikol-Naroda Road, Ahmedabad",Ahmedabad,23.0507889,72.6634833,True,2026-02-11 17:56:02.721680,approved,
1,4,Tan-man bhaji pav,Extracted from OpenStreetMap,"Sardar Patel Ring Road, Vastral, Ahmedabad",Ahmedabad,23.0071778,72.6638136,True,2026-02-11 17:56:02.721680,approved,
1,9,VIVEKANAND VIDYALAYA,Extracted from OpenStreetMap,"Rabari colony road, Rabari Colony, Ahmedabad",Ahmedabad,23.0094986,72.6362813,True,2026-02-11 17:56:02.721680,approved,
1,6,Western Railway DRM OFFICE,Extracted from OpenStreetMap,"Naroda Road, Sahijpur, Ahmedabad",Ahmedabad,23.0394877,72.6090385,True,2026-02-11 17:56:02.721680,approved,
1,11,Havmor Ice Creams,Extracted from OpenStreetMap,"200ft. Gala Gymkhana Road, Ahmedabad",Ahmedabad,23.0174138,72.4756688,True,2026-02-11 17:56:02.721680,approved,
1,4,Upper Crest,Extracted from OpenStreetMap,"Sun South Winds Road, Ahmedabad",Ahmedabad,23.0168753,72.4703195,True,2026-02-11 17:56:02.721680,approved,
1,11,Bata,Extracted from OpenStreetMap,"200ft. Gala Gymkhana Road, Ahmedabad",Ahmedabad,23.0174711,72.4755677,True,2026-02-11 17:56:02.721680,approved,
1,11,ICICI Bank,Extracted from OpenStreetMap,"200ft. Gala Gymkhana Road, Ahmedabad",Ahmedabad,23.0176502,72.4754529,True,2026-02-11 17:56:02.721680,approved,
1,11,HDFC Bank,Extracted from OpenStreetMap,"200ft. Gala Gymkhana Road, Ahmedabad",Ahmedabad,23.0172484,72.4758126,True,2026-02-11 17:56:02.721680,approved,
1,11,Axis Bank,Extracted from OpenStreetMap,"200ft. Gala Gymkhana Road, Ahmedabad",Ahmedabad,23.017059,72.4760216,True,2026-02-11 17:56:02.721680,approved,
1,2,Excel Eye Care,Extracted from OpenStreetMap,"Judges Bunglow Road, Vastrapur, Ahmedabad",Ahmedabad,23.0300762,72.5287891,True,2026-02-11 17:56:02.721680,approved,
1,11,Mahasagar travels ltd,Extracted from OpenStreetMap,"Ramdevnagar road, Ramdev nagar, Ahmedabad",Ahmedabad,23.0256216,72.5252741,True,2026-02-11 17:56:02.721680,approved,
1,11,Neeta travels,Extracted from OpenStreetMap,"Ramdevnagar road, Ramdev nagar, Ahmedabad",Ahmedabad,23.0257415,72.5253435,True,2026-02-11 17:56:02.721680,approved,
1,11,Ramani travels,Extracted from OpenStreetMap,"Ramdevnagar road, Ramdev nagar, Ahmedabad",Ahmedabad,23.026132,72.5253774,True,2026-02-11 17:56:02.721680,approved,
1,11,Gujarat travels,Extracted from OpenStreetMap,"Ramdevnagar road, Ramdev nagar, Ahmedabad",Ahmedabad,23.0261084,72.5256239,True,2026-02-11 17:56:02.721680,approved,
1,2,Shivam X-ray & Sonography clinic,Extracted from OpenStreetMap,"BRTS Route, Usmanpura, Ahmedabad",Ahmedabad,23.0576222,72.5700771,True,2026-02-11 17:56:02.721680,approved,
1,11,Sarveshwar Mahadev Temple,Extracted from OpenStreetMap,"Radhaswami Road, Ranip, Ahmedabad",Ahmedabad,23.0748674,72.5784767,True,2026-02-11 17:56:02.721680,approved,
1,8,D Mart,Extracted from OpenStreetMap,"132 Ft. Ring Road, Akhbar nagar, Ahmedabad",Ahmedabad,23.0681594,72.5759446,True,2026-02-11 17:56:02.721680,approved,
1,5,State Bank of India,Extracted from OpenStreetMap,"Ranip Gam Road, Ranip, Ahmedabad",Ahmedabad,23.0804261,72.5744422,True,2026-02-11 17:56:02.721680,approved,
1,11,Ranip Vegetable market,Extracted from OpenStreetMap,"Ranip Gam Road, Ranip, Ahmedabad",Ahmedabad,23.0796845,72.574545,True,2026-02-11 17:56:02.721680,approved,
1,2,Maganpura Police Chowki,Extracted from OpenStreetMap,"Radhaswami Road, Ranip, Ahmedabad",Ahmedabad,23.0805194,72.5785719,True,2026-02-11 17:56:02.721680,approved,
1,11,Khodiyar Temple,Extracted from OpenStreetMap,"Radhaswami Road, Ranip, Ahmedabad",Ahmedabad,23.0765706,72.5776658,True,2026-02-11 17:56:02.721680,approved,
1,3,PVR Cinemas,Extracted from OpenStreetMap,"Radhaswami Road, Ranip, Ahmedabad",Ahmedabad,23.068497,72.5760108,True,2026-02-11 17:56:02.721680,approved,
1,11,havmor,Extracted from OpenStreetMap,"120 Feet Ring Road, Ahmedabad",Ahmedabad,23.0422888,72.5486106,True,2026-02-11 17:56:02.721680,approved,
1,4,Subway,Extracted from OpenStreetMap,"120 Feet Ring Road, Ahmedabad",Ahmedabad,23.0422816,72.549183,True,2026-02-11 17:56:02.721680,approved,
1,4,Fullfills Ahmedabad,Extracted from OpenStreetMap,"120 Feet Ring Road, Ahmedabad",Ahmedabad,23.042429,72.5486687,True,2026-02-11 17:56:02.721680,approved,
1,4,quinches,Extracted from OpenStreetMap,"120 Feet Ring Road, Ahmedabad",Ahmedabad,23.0416337,72.5490709,True,2026-02-11 17:56:02.721680,approved,
1,4,uno pizza,Extracted from OpenStreetMap,"120 Feet Ring Road, Ahmedabad",Ahmedabad,23.042389,72.5492178,True,2026-02-11 17:56:02.721680,approved,
1,11,tea stall,Extracted from OpenStreetMap,"120 Feet Ring Road, Ahmedabad",Ahmedabad,23.042429,72.5486687,True,2026-02-11 17:56:02.721680,approved,
1,7,Bharat Petroleum,Extracted from OpenStreetMap,"Sola Gam Road, Sola, Ahmedabad",Ahmedabad,23.076537,72.5234735,True,2026-02-11 17:56:02.721680,approved,
1,6,Vasavda Community Centre,Extracted from OpenStreetMap,"Ramkrishna Parmarth Marg, Khokhra, Ahmedabad",Ahmedabad,22.9998912,72.6193457,True,2026-02-11 17:56:02.721680,approved,
1,2,ESIS HOSPITAL,Extracted from OpenStreetMap,"Bhaipura Road, Mehmdabad - Khokhra, Ahmedabad",Ahmedabad,22.9991685,72.6166652,True,2026-02-11 17:56:02.721680,approved,
1,2,Rukshmani Hospital,Extracted from OpenStreetMap,"Bhaipura Road, Mehmdabad - Khokhra, Ahmedabad",Ahmedabad,22.9992751,72.6193052,True,2026-02-11 17:56:02.721680,approved,
1,4,TGB,Extracted from OpenStreetMap,"Commerce Six Roads Circle, Usmanpura, Ahmedabad",Ahmedabad,23.0399675,72.5549838,True,2026-02-11 17:56:02.721680,approved,
1,4,The Cafe Baraco,Extracted from OpenStreetMap,"120 Feet Ring Road, Naranpura, Ahmedabad",Ahmedabad,23.0444534,72.5505062,True,2026-02-11 17:56:02.721680,approved,
1,11,TatvaSoft,Extracted from OpenStreetMap,"Sindhu Bhavan Road, Thaltej, Ahmedabad",Ahmedabad,23.0351369,72.5004217,True,2026-02-11 17:56:02.721680,approved,
1,11,Om shanti,Extracted from OpenStreetMap,"Airport Circle, Ahmedabad",Ahmedabad,23.0873143,72.6192277,True,2026-02-11 17:56:02.721680,approved,
1,11,Dutch and Armenian Tombs,Extracted from OpenStreetMap,"Kankaria Lake Front Walkway, Sherkotda, Ahmedabad",Ahmedabad,23.0057035,72.5975871,True,2026-02-11 17:56:02.721680,approved,
1,11,EVENT GROUND,Extracted from OpenStreetMap,"Sabarmati Riverfront road, Kochrab, Ahmedabad",Ahmedabad,23.0160978,72.5733412,True,2026-02-11 17:56:02.721680,approved,
1,8,readymadepocket,Extracted from OpenStreetMap,"Relief Road, Manek Chowk, Ahmedabad",Ahmedabad,23.0277361,72.5880236,True,2026-02-11 17:56:02.721680,approved,
1,4,Iscon Ghantiya,Extracted from OpenStreetMap,"Sargam Marg, Bodakdev, Ahmedabad",Ahmedabad,23.0398379,72.5276503,True,2026-02-11 17:56:02.721680,approved,
1,11,Kalpyan Pushti Haveli,Extracted from OpenStreetMap,"Sargam Marg, Vastrapur, Ahmedabad",Ahmedabad,23.0384308,72.5306552,True,2026-02-11 17:56:02.721680,approved,
1,8,Vijay Sales,Extracted from OpenStreetMap,"Sunrise park street, Memnagar, Ahmedabad",Ahmedabad,23.045838,72.5299101,True,2026-02-11 17:56:02.721680,approved,
1,11,Shades of Black Spalon,Extracted from OpenStreetMap,"Sunrise park street, Memnagar, Ahmedabad",Ahmedabad,23.0440516,72.5297042,True,2026-02-11 17:56:02.721680,approved,
1,11,Chintamani Parshwanath Mandir,Extracted from OpenStreetMap,"SH18, Ahmedabad",Ahmedabad,23.1792586,71.9793722,True,2026-02-11 17:56:02.721680,approved,
1,11,Management Mess,Extracted from OpenStreetMap,"Tragad gam road, Ahmedabad",Ahmedabad,23.1270148,72.5456021,True,2026-02-11 17:56:02.721680,approved,
1,11,Nirma University Gym,Extracted from OpenStreetMap,"Tragad gam road, Ahmedabad",Ahmedabad,23.1267632,72.5458113,True,2026-02-11 17:56:02.721680,approved,
1,11,F1 Pharma Canteen,Extracted from OpenStreetMap,"Tragad gam road, Ahmedabad",Ahmedabad,23.1283124,72.5473147,True,2026-02-11 17:56:02.721680,approved,
1,11,NIM Auditorium,Extracted from OpenStreetMap,"Tragad gam road, Ahmedabad",Ahmedabad,23.1287897,72.5463512,True,2026-02-11 17:56:02.721680,approved,
1,7,New Parking,Extracted from OpenStreetMap,"Tragad gam road, Ahmedabad",Ahmedabad,23.1289599,72.5442698,True,2026-02-11 17:56:02.721680,approved,
1,5,Kalupur Cooperative Commercial BANK,Extracted from OpenStreetMap,"Tragad gam road, Ahmedabad",Ahmedabad,23.1282051,72.5439614,True,2026-02-11 17:56:02.721680,approved,
1,4,Hotel Purohit Por,Extracted from OpenStreetMap,"Sardar Patel Ring Road, Vastral, Ahmedabad",Ahmedabad,22.9945198,72.665834,True,2026-02-11 17:56:02.721680,approved,
1,9,Manipur Government School,Extracted from OpenStreetMap,"Bopal-Ghuma road, Ghuma, Ahmedabad",Ahmedabad,23.0332883,72.429408,True,2026-02-11 17:56:02.721680,approved,
1,9,Anant National University,Extracted from OpenStreetMap,"Bopal - Sanand Bypass Road, Ahmedabad",Ahmedabad,23.0308404,72.4271753,True,2026-02-11 17:56:02.721680,approved,
1,6,Manipur Panchayat Office,Extracted from OpenStreetMap,"Bopal - Sanand Bypass Road, Ahmedabad",Ahmedabad,23.0343988,72.4263905,True,2026-02-11 17:56:02.721680,approved,
1,6,Leelapur Bharot Community Ground,Extracted from OpenStreetMap,"Pride Heritage Street, Ahmedabad",Ahmedabad,23.1468201,72.5132418,True,2026-02-11 17:56:02.721680,approved,
1,9,Amrita Vidyalayam,Extracted from OpenStreetMap,"Ravishankar Maharaj Road, Karmachari Nagar, Ahmedabad",Ahmedabad,23.0675829,72.5371239,True,2026-02-11 17:56:02.721680,approved,
1,9,Anant National University Gate,Extracted from OpenStreetMap,"Bopal - Sanand Bypass Road, Ahmedabad",Ahmedabad,23.0308439,72.4271652,True,2026-02-11 17:56:02.721680,approved,
1,11,TKB cake shop,Extracted from OpenStreetMap,"Bopal-Ghuma road, Ghuma, Ahmedabad",Ahmedabad,23.0303355,72.4740109,True,2026-02-11 17:56:02.721680,approved,
1,9,Sanskardham Primary School,Extracted from OpenStreetMap,"Bopal - Sanand Bypass Road, Ahmedabad",Ahmedabad,23.0306687,72.4274117,True,2026-02-11 17:56:02.721680,approved,
1,9,Anant National University College Building,Extracted from OpenStreetMap,"Bopal - Sanand Bypass Road, Ahmedabad",Ahmedabad,23.027625,72.4259889,True,2026-02-11 17:56:02.721680,approved,
1,7,Sanskardham open parking,Extracted from OpenStreetMap,"Bopal - Sanand Bypass Road, Ahmedabad",Ahmedabad,23.0307786,72.427885,True,2026-02-11 17:56:02.721680,approved,
1,4,Havmor restaurant,Extracted from OpenStreetMap,"Vakil Saheb Flyover, Ahmedabad",Ahmedabad,23.0287895,72.4775187,True,2026-02-11 17:56:02.721680,approved,
1,11,Charbhuja Mandir,Extracted from OpenStreetMap,"NH47, Ahmedabad",Ahmedabad,23.0060333,72.7511315,True,2026-02-11 17:56:02.721680,approved,
1,3,SoBo Centre,Extracted from OpenStreetMap,"Sun South Winds Road, Ahmedabad",Ahmedabad,23.0174425,72.4751813,True,2026-02-11 17:56:02.721680,approved,
1,11,D Mart,Extracted from OpenStreetMap,"Vakil Saheb Flyover, Ahmedabad",Ahmedabad,23.0283451,72.4784116,True,2026-02-11 17:56:02.721680,approved,
1,4,Sphere Louge,Extracted from OpenStreetMap,"100 Ft. Road, Prahladnagar, Ahmedabad",Ahmedabad,23.0108416,72.5048519,True,2026-02-11 17:56:02.721680,approved,
1,4,Seva Cafe,Extracted from OpenStreetMap,"Chimanlal Girdharlal Road, Ambawadi, Ahmedabad",Ahmedabad,23.0346667,72.5603703,True,2026-02-11 17:56:02.721680,approved,
1,7,CNG gas station,Extracted from OpenStreetMap,"Sardar Patel Ring Road, Nava Naroda, Ahmedabad",Ahmedabad,23.0846729,72.6862592,True,2026-02-11 17:56:02.721680,approved,
1,7,CNG stattion,Extracted from OpenStreetMap,"Sardar Patel Ring Road, Ahmedabad",Ahmedabad,22.9359318,72.49878,True,2026-02-11 17:56:02.721680,approved,
1,11,Amul Parlor,Extracted from OpenStreetMap,"ISKCON Flyover, Ramdev nagar, Ahmedabad",Ahmedabad,23.0321809,72.5052786,True,2026-02-11 17:56:02.721680,approved,
1,4,Unlocked,Extracted from OpenStreetMap,"Umashankar Joshi Marg, Gulbai tekra, Ahmedabad",Ahmedabad,23.033026,72.5577346,True,2026-02-11 17:56:02.721680,approved,
1,4,Cafe udipi richi,Extracted from OpenStreetMap,"Chimanlal Girdharlal Road, Ambawadi, Ahmedabad",Ahmedabad,23.0320819,72.5600295,True,2026-02-11 17:56:02.721680,approved,
1,5,Novus Logics,Extracted from OpenStreetMap,"Ramapir no Tekro BRTS Station, Nava-Vadaj, Ahmedabad",Ahmedabad,23.0622048,72.5713002,True,2026-02-11 17:56:02.721680,approved,
1,7,Cng and petrol pump,Extracted from OpenStreetMap,"Sardar Patel Ring Road, Ahmedabad",Ahmedabad,23.0289447,72.6734332,True,2026-02-11 17:56:02.721680,approved,
1,4,Hotel Emerland,Extracted from OpenStreetMap,"Kotar pur-airport road, Naroda, Ahmedabad",Ahmedabad,23.0742871,72.6506214,True,2026-02-11 17:56:02.721680,approved,
1,11,Amul,Extracted from OpenStreetMap,"Corporate road, Makarba, Sarkhej",Ahmedabad,23.0128218,72.5066003,True,2026-02-11 17:56:02.721680,approved,
1,4,In-Garden Cafe,Extracted from OpenStreetMap,"Garden Enterance, Prahladnagar, Ahmedabad",Ahmedabad,23.0122064,72.5062163,True,2026-02-11 17:56:02.721680,approved,
1,8,Shopping ahemadabad,Extracted from OpenStreetMap,"Lala Lajpat Rai Marg, Maninagar, Ahmedabad",Ahmedabad,23.0004179,72.6002491,True,2026-02-11 17:56:02.721680,approved,
1,11,Prerna Tirth Derasar,Extracted from OpenStreetMap,"lal bahadur shashtri road, Jodhpur, Ahmedabad",Ahmedabad,23.0214082,72.5198974,True,2026-02-11 17:56:02.721680,approved,
1,4,Sanmani Restaurant,Extracted from OpenStreetMap,"NH8, Sarangpur, Ahmedabad",Ahmedabad,23.0236978,72.5995018,True,2026-02-11 17:56:02.721680,approved,
1,11,Space Application Center,Extracted from OpenStreetMap,"Satellite Road, Ramdev nagar, Ahmedabad",Ahmedabad,23.0271651,72.5188421,True,2026-02-11 17:56:02.721680,approved,
1,4,Takshshila Food Court,Extracted from OpenStreetMap,"Netaji Subhash Chandra Road, Kochrab, Ahmedabad",Ahmedabad,23.0275402,72.559229,True,2026-02-11 17:56:02.721680,approved,
1,4,Jai Jalaram Parontha House,Extracted from OpenStreetMap,"Ashram Road, Paldi, Ahmedabad",Ahmedabad,23.0246356,72.5714777,True,2026-02-11 17:56:02.721680,approved,
1,4,Udipi Cafe,Extracted from OpenStreetMap,"Ashram Road, Paldi, Ahmedabad",Ahmedabad,23.0144058,72.565418,True,2026-02-11 17:56:02.721680,approved,
1,11,Kankaria Telephone exchange,Extracted from OpenStreetMap,"BRTS Station, Kankaria, Ahmedabad",Ahmedabad,23.0024253,72.5928352,True,2026-02-11 17:56:02.721680,approved,
1,5,State Bank of India,Extracted from OpenStreetMap,"Ambli Bopal Road, Ramdev nagar, Ahmedabad",Ahmedabad,23.0262784,72.482714,True,2026-02-11 17:56:02.721680,approved,
1,11,Sparsh Xpress Spa,Extracted from OpenStreetMap,"Ambli Bopal Road, Ramdev nagar, Ahmedabad",Ahmedabad,23.0262109,72.4823051,True,2026-02-11 17:56:02.721680,approved,
1,11,Well pets,Extracted from OpenStreetMap,"Ambli Bopal Road, Ramdev nagar, Ahmedabad",Ahmedabad,23.0260917,72.4821409,True,2026-02-11 17:56:02.721680,approved,
1,5,Complitech Solutions Pvt. Ltd.,Extracted from OpenStreetMap,"Sola Road, Naranpura, Ahmedabad",Ahmedabad,23.0589766,72.537631,True,2026-02-11 17:56:02.721680,approved,
1,11,I Shree Health Club,Extracted from OpenStreetMap,"Sola Road, Ahmedabad",Ahmedabad,23.0599435,72.536366,True,2026-02-11 17:56:02.721680,approved,
1,8,The Haqq Factory Store,Extracted from OpenStreetMap,"NH947, Sarkhej",Ahmedabad,22.9868059,72.4820619,True,2026-02-11 17:56:02.721680,approved,
1,2,Ranip Police Station,Extracted from OpenStreetMap,"Radhaswami Road, Ranip, Ahmedabad",Ahmedabad,23.0806075,72.5779962,True,2026-02-11 17:56:02.721680,approved,
1,2,Gita Medical Stores,Extracted from OpenStreetMap,"Ranip Gam Road, Ranip, Ahmedabad",Ahmedabad,23.0795537,72.5744221,True,2026-02-11 17:56:02.721680,approved,
1,11,Agile Consultant,Extracted from OpenStreetMap,"Surendra Mangaldas Road, Ambawadi, Ahmedabad",Ahmedabad,23.0215407,72.5452052,True,2026-02-11 17:56:02.721680,approved,
1,8,चिराग़ जवेल्लर्स,Extracted from OpenStreetMap,"BRTS Route, Maninagar East, Ahmedabad",Ahmedabad,22.9950238,72.6126258,True,2026-02-11 17:56:02.721680,approved,
1,6,Employee providens fund PF office,Extracted from OpenStreetMap,"Gandhi Bridge, Usmanpura, Ahmedabad",Ahmedabad,23.0410332,72.5706573,True,2026-02-11 17:56:02.721680,approved,
1,11,Ghuma BRTS terminal,Extracted from OpenStreetMap,"Bopal-Ghuma road, Ghuma, Ahmedabad",Ahmedabad,23.0309359,72.4483279,True,2026-02-11 17:56:02.721680,approved,
1,11,ATM HDFC Bank,Extracted from OpenStreetMap,"Bopal-Ghuma road, Ghuma, Ahmedabad",Ahmedabad,23.0317286,72.4580324,True,2026-02-11 17:56:02.721680,approved,
1,11,AMTS Ghuma Bus terminal,Extracted from OpenStreetMap,"Bopal-Ghuma road, Ghuma, Ahmedabad",Ahmedabad,23.030556,72.4501878,True,2026-02-11 17:56:02.721680,approved,
1,7,Car Wash,Extracted from OpenStreetMap,"Bopal-Ghuma road, Ghuma, Ahmedabad",Ahmedabad,23.0315698,72.4318806,True,2026-02-11 17:56:02.721680,approved,
1,7,Indian oil CNG n Petrol,Extracted from OpenStreetMap,"Ambli Bopal Road, Ahmedabad",Ahmedabad,23.0292807,72.4750283,True,2026-02-11 17:56:02.721680,approved,
1,4,Jalaram Parotha house,Extracted from OpenStreetMap,"Ambli Bopal Road, Ahmedabad",Ahmedabad,23.0284866,72.4766561,True,2026-02-11 17:56:02.721680,approved,
1,11,Global WebSoft Pvt Ltd,Extracted from OpenStreetMap,"Ashram Road, Nava-Vadaj, Ahmedabad",Ahmedabad,23.0507979,72.572722,True,2026-02-11 17:56:02.721680,approved,
1,11,KAMAL STEEL,Extracted from OpenStreetMap,"Ahmedabad-Mehmdavad-Nadiad Road, Ramol -Jantanagar, Ahmedabad",Ahmedabad,22.9758691,72.6370458,True,2026-02-11 17:56:02.721680,approved,
1,8,Bhoomi Textile,Extracted from OpenStreetMap,"Narol Circle, Isanpur, Ahmedabad",Ahmedabad,22.9678866,72.5834326,True,2026-02-11 17:56:02.721680,approved,
1,4,Chicken biryani,Extracted from OpenStreetMap,"Jamalpur Road, Bhavna colony, Ahmedabad",Ahmedabad,23.0169709,72.5835893,True,2026-02-11 17:56:02.721680,approved,
1,4,K.G.N. Chinese Fry Centre,Extracted from OpenStreetMap,"Jamalpur Road, Bhavna colony, Ahmedabad",Ahmedabad,23.0197975,72.5838568,True,2026-02-11 17:56:02.721680,approved,
1,11,HorizonCore Infosoft Pvt Ltd,Extracted from OpenStreetMap,"BRTS Route, Rambag, Ahmedabad",Ahmedabad,22.9950084,72.6022538,True,2026-02-11 17:56:02.721680,approved,
1,5,Indusland Bank,Extracted from OpenStreetMap,"BRTS Route, Rambag, Ahmedabad",Ahmedabad,22.9950448,72.6022845,True,2026-02-11 17:56:02.721680,approved,
1,2,Aarna Hospital,Extracted from OpenStreetMap,"BRTS Route, Rambag, Ahmedabad",Ahmedabad,22.995052,72.6023157,True,2026-02-11 17:56:02.721680,approved,
1,6,ESIC - Dispensery,Extracted from OpenStreetMap,"BRTS Route, Rambag, Ahmedabad",Ahmedabad,22.9950795,72.6024715,True,2026-02-11 17:56:02.721680,approved,
1,7,Solitaire Car Studio,Extracted from OpenStreetMap,"Sindhu Bhavan Road, Thaltej, Ahmedabad",Ahmedabad,23.0347103,72.5003763,True,2026-02-11 17:56:02.721680,approved,
1,8,K R SONS,Extracted from OpenStreetMap,"Satellite Road, Ramdev nagar, Ahmedabad",Ahmedabad,23.0260246,72.5235517,True,2026-02-11 17:56:02.721680,approved,
1,11,Creamy Treats,Extracted from OpenStreetMap,"New C.G. Road, Chandkheda, Ahmedabad",Ahmedabad,23.1063256,72.5968772,True,2026-02-11 17:56:02.721680,approved,
1,9,Kameshwar School,Extracted from OpenStreetMap,"Judges Bunglow Road, Vastrapur, Ahmedabad",Ahmedabad,23.0282166,72.5271318,True,2026-02-11 17:56:02.721680,approved,
1,11,Palladium,Extracted from OpenStreetMap,"Prahlad Nagar Road, Makarba, Sarkhej",Ahmedabad,22.9992358,72.5015695,True,2026-02-11 17:56:02.721680,approved,
1,11,Palladium,Extracted from OpenStreetMap,"Corporate road, Makarba, Sarkhej",Ahmedabad,22.9992904,72.5015058,True,2026-02-11 17:56:02.721680,approved,
1,4,cabana lounge,Extracted from OpenStreetMap,"Pakwan Flyover, Bodakdev, Ahmedabad",Ahmedabad,23.0355672,72.5061396,True,2026-02-11 17:56:02.721680,approved,
1,11,AMUL store,Extracted from OpenStreetMap,"SG Highway, Ahmedabad",Ahmedabad,23.1262799,72.5392037,True,2026-02-11 17:56:02.721680,approved,
1,5,SBI,Extracted from OpenStreetMap,"132 Ft. Ring Road, Jivraj park, Ahmedabad",Ahmedabad,23.0132724,72.5298603,True,2026-02-11 17:56:02.721680,approved,
1,5,Bank of Baroda,Extracted from OpenStreetMap,"132 Ft. Ring Road, Jivraj park, Ahmedabad",Ahmedabad,23.013352,72.5298603,True,2026-02-11 17:56:02.721680,approved,
1,11,Murlidhar,Extracted from OpenStreetMap,"100 Ft. Road, Jodhpur, Ahmedabad",Ahmedabad,23.013976,72.5296525,True,2026-02-11 17:56:02.721680,approved,
1,11,cafe13,Extracted from OpenStreetMap,"132 Ft. Ring Road, Jivraj park, Ahmedabad",Ahmedabad,23.0133426,72.529945,True,2026-02-11 17:56:02.721680,approved,
1,11,Venture Studio,Extracted from OpenStreetMap,"Drive-in Road, Usmanpura, Ahmedabad",Ahmedabad,23.0397885,72.5536202,True,2026-02-11 17:56:02.721680,approved,
1,4,Himalaya Bakery,Extracted from OpenStreetMap,"Narol Sarkhej Road, Ahmedabad",Ahmedabad,22.9798046,72.5737246,True,2026-02-11 17:56:02.721680,approved,
1,11,Noor Mobile Shop,Extracted from OpenStreetMap,"Narol Sarkhej Road, Ahmedabad",Ahmedabad,22.9789749,72.5719973,True,2026-02-11 17:56:02.721680,approved,
1,11,Ahad mobile repair,Extracted from OpenStreetMap,"Narol Sarkhej Road, Ahmedabad",Ahmedabad,22.9787675,72.5716124,True,2026-02-11 17:56:02.721680,approved,
1,11,Pakiza Pan Parlour,Extracted from OpenStreetMap,"Narol Sarkhej Road, Ahmedabad",Ahmedabad,22.9785959,72.570559,True,2026-02-11 17:56:02.721680,approved,
1,4,Chand bakery,Extracted from OpenStreetMap,"Narol Sarkhej Road, Ahmedabad",Ahmedabad,22.9795173,72.5734667,True,2026-02-11 17:56:02.721680,approved,
1,11,Venus tape,Extracted from OpenStreetMap,"Vatva-1 Road, Ahmedabad",Ahmedabad,22.9779487,72.6314285,True,2026-02-11 17:56:02.721680,approved,
1,11,The Gujarat Cancer & Research Institute Blood Bank,Extracted from OpenStreetMap,"Sant Rohidas Road, Kalapi nagar, Ahmedabad",Ahmedabad,23.0509351,72.6072747,True,2026-02-11 17:56:02.721680,approved,
1,11,Institute of Kidney Disease and Research Centre's Blood Bank,Extracted from OpenStreetMap,"Jethabhai Parmar Garden Path, Girdharnagar, Ahmedabad",Ahmedabad,23.0499936,72.6017466,True,2026-02-11 17:56:02.721680,approved,
1,11,"Civil Hospital Blood Bank, Ahmedabad",Extracted from OpenStreetMap,"Jethabhai Parmar Garden Path, Girdharnagar, Ahmedabad",Ahmedabad,23.0521851,72.6039473,True,2026-02-11 17:56:02.721680,approved,
1,11,Cross World Voluntary Blood Bank,Extracted from OpenStreetMap,"120 Feet Ring Road, Naranpura, Ahmedabad",Ahmedabad,23.0472552,72.5622377,True,2026-02-11 17:56:02.721680,approved,
1,11,"Gujarat Blood Bank, Naranpura",Extracted from OpenStreetMap,"Navrangpura Internal Road, Ranip, Ahmedabad",Ahmedabad,23.0553948,72.5601871,True,2026-02-11 17:56:02.721680,approved,
1,11,Sterling Hospital's Blood Bank,Extracted from OpenStreetMap,"Gurukul Road, Vishram Marg, Memnagar, Ahmedabad",Ahmedabad,23.0488693,72.5313574,True,2026-02-11 17:56:02.721680,approved,
1,11,Prathama Blood Centre,Extracted from OpenStreetMap,"Dr. Jivraj Mehta Road, Vasna, Ahmedabad",Ahmedabad,23.0062053,72.5417885,True,2026-02-11 17:56:02.721680,approved,
1,11,Dr. Jivraj Mehta Smarak Health Foundation Blood Bank,Extracted from OpenStreetMap,"Dr. Jivraj Mehta Road, Vasna, Ahmedabad",Ahmedabad,23.0086532,72.5432986,True,2026-02-11 17:56:02.721680,approved,
1,11,V. S. Hospital Blood Bank,Extracted from OpenStreetMap,"Ashram Road, Paldi, Ahmedabad",Ahmedabad,23.0193231,72.570869,True,2026-02-11 17:56:02.721680,approved,
1,11,"Gujarat Blood Bank, Paldi",Extracted from OpenStreetMap,"Ashram Road, Paldi, Ahmedabad",Ahmedabad,23.0165347,72.5663817,True,2026-02-11 17:56:02.721680,approved,
1,11,"Indian Red Cross Society Blood Bank, Ahmedabad",Extracted from OpenStreetMap,"Manubhai Jadhani Marg, Paldi, Ahmedabad",Ahmedabad,23.012315,72.5579515,True,2026-02-11 17:56:02.721680,approved,
1,11,"General Hospital Blood Bank, Sola",Extracted from OpenStreetMap,"Sai Dham Road, Bhagvat, Ahmedabad",Ahmedabad,23.0829395,72.5247699,True,2026-02-11 17:56:02.721680,approved,
1,11,Maha Gujarat Blood Bank,Extracted from OpenStreetMap,"Lala Lajpat Rai Marg, Maninagar, Ahmedabad",Ahmedabad,22.9975368,72.6024306,True,2026-02-11 17:56:02.721680,approved,
1,11,L. G. Hospital Blood Bank,Extracted from OpenStreetMap,"Vatwa Road, Maninagar, Ahmedabad",Ahmedabad,22.9995614,72.6050511,True,2026-02-11 17:56:02.721680,approved,
1,11,Help Voluntary Blood Bank,Extracted from OpenStreetMap,"Vatwa Road, Maninagar, Ahmedabad",Ahmedabad,23.0001213,72.6047862,True,2026-02-11 17:56:02.721680,approved,
1,11,GUJARAT CANCER MEDICAL COLLEGE's Blood Bank,Extracted from OpenStreetMap,"Naroda Road, Sahijpur, Ahmedabad",Ahmedabad,23.0391891,72.6105738,True,2026-02-11 17:56:02.721680,approved,
1,11,Smt. Shardaben Hospital Blood Bank,Extracted from OpenStreetMap,"Sarangpur railway station road, Sarangpur, Ahmedabad",Ahmedabad,23.0330048,72.6107548,True,2026-02-11 17:56:02.721680,approved,
1,11,Adarsh Pathology Laboratory and Blood Bank,Extracted from OpenStreetMap,"Maharana Pratap Flyover, Shastri Nagar, Ahmedabad",Ahmedabad,23.0377242,72.6301351,True,2026-02-11 17:56:02.721680,approved,
1,11,"White Cross Blood Bank, Naroda",Extracted from OpenStreetMap,"Naroda Patia Circle, Naroda, Ahmedabad",Ahmedabad,23.065027,72.6426664,True,2026-02-11 17:56:02.721680,approved,
1,11,"General Hospital Blood Bank, Ahmedabad",Extracted from OpenStreetMap,"Rakhial Road, Pratapnagar, Ahmedabad",Ahmedabad,23.0280519,72.6237971,True,2026-02-11 17:56:02.721680,approved,
1,11,Visa Hanuman,Extracted from OpenStreetMap,"Gandhi Road, Revdi Bazar, Ahmedabad",Ahmedabad,23.0228973,72.5937955,True,2026-02-11 17:56:02.721680,approved,
1,11,"Military Hospital Blood Bank, Ahmedabad",Extracted from OpenStreetMap,"Sant Rohidas Road, Kalapi nagar, Ahmedabad",Ahmedabad,23.0571162,72.6120248,True,2026-02-11 17:56:02.721680,approved,
1,11,Moinuddin Chisti Mosque,Extracted from OpenStreetMap,"Riverfront Road, Dudheshwar, Ahmedabad",Ahmedabad,23.0601961,72.5883445,True,2026-02-11 17:56:02.721680,approved,
1,11,The Times of India,Extracted from OpenStreetMap,"Ashram Road, Kochrab, Ahmedabad",Ahmedabad,23.0342305,72.5697328,True,2026-02-11 17:56:02.721680,approved,
1,2,"Samarpan General Hospital, Ahmedabad",Extracted from OpenStreetMap,"SG Highway, Gota, Ahmedabad",Ahmedabad,23.1053006,72.5254109,True,2026-02-11 17:56:02.721680,approved,
1,2,Shree Bharti Vallabh Hospital,Extracted from OpenStreetMap,"Shahibaug Flyover, Madhupura, Ahmedabad",Ahmedabad,23.0495869,72.5928806,True,2026-02-11 17:56:02.721680,approved,
1,2,"Kasturba Hospital, Ahmedabad",Extracted from OpenStreetMap,"SH1;SH20, Dhandhuka",Ahmedabad,22.3812599,71.9763587,True,2026-02-11 17:56:02.721680,approved,
1,2,"Kunal Medical Hospital, Ahmedabad",Extracted from OpenStreetMap,"Hatkeshwar Khokhra Flyover, Khokhra, Ahmedabad",Ahmedabad,22.9982535,72.6250631,True,2026-02-11 17:56:02.721680,approved,
1,2,Ortho Kids Clinic,Extracted from OpenStreetMap,"132 Ft. Ring Road, Jodhpur, Ahmedabad",Ahmedabad,23.018609,72.5297897,True,2026-02-11 17:56:02.721680,approved,
1,2,Nandan Maternity Home,Extracted from OpenStreetMap,"Gurukul Road, Vishram Marg, Memnagar, Ahmedabad",Ahmedabad,23.052184,72.5339005,True,2026-02-11 17:56:02.721680,approved,
1,2,"Kalrav Children Hospital, Ahmedabad",Extracted from OpenStreetMap,"Gurukul Road, Vishram Marg, Memnagar, Ahmedabad",Ahmedabad,23.0501988,72.5374953,True,2026-02-11 17:56:02.721680,approved,
1,2,Cornea Foundation Hospital,Extracted from OpenStreetMap,"Drive-in Road, Vastrapur, Ahmedabad",Ahmedabad,23.0461279,72.5364487,True,2026-02-11 17:56:02.721680,approved,
1,2,Prathna Surgical And Medical Hospital,Extracted from OpenStreetMap,"PayalPark society Road, Sahijpur, Ahmedabad",Ahmedabad,23.056598,72.6411603,True,2026-02-11 17:56:02.721680,approved,
1,2,Arihant Fracture and Orthopedic Hospital,Extracted from OpenStreetMap,"Dharanidhar Flyover, Vasna, Ahmedabad",Ahmedabad,23.0133094,72.545561,True,2026-02-11 17:56:02.721680,approved,
1,2,Chandrabhan Hospital and Gynac Institute,Extracted from OpenStreetMap,"Gurukul Road, Vishram Marg, Memnagar, Ahmedabad",Ahmedabad,23.0499504,72.5338505,True,2026-02-11 17:56:02.721680,approved,
1,2,"Jeevandeep Hospital, Sardanagar",Extracted from OpenStreetMap,"Airport Road, Ambavadi / kubernagar, Ahmedabad",Ahmedabad,23.0856728,72.6335469,True,2026-02-11 17:56:02.721680,approved,
1,2,"Jagmohan Hospital, Ahmedabad",Extracted from OpenStreetMap,"Navrangpura Internal Road, Ranip, Ahmedabad",Ahmedabad,23.0383141,72.567755,True,2026-02-11 17:56:02.721680,approved,
1,2,Vasudha Eye Hospital,Extracted from OpenStreetMap,"Bulkhidas Road, Sabarmati, Ahmedabad",Ahmedabad,23.0834466,72.5895064,True,2026-02-11 17:56:02.721680,approved,
1,2,"Dhwani General Hospital, Nursing Home and Materity Home",Extracted from OpenStreetMap,"Ramrajya Flyover, Jantanagar -Ramol, Ahmedabad",Ahmedabad,23.0146498,72.6448899,True,2026-02-11 17:56:02.721680,approved,
1,2,Kakadiya Hospital,Extracted from OpenStreetMap,"Lal Bahadur Shastri Road, Sahijpur, Ahmedabad",Ahmedabad,23.0401061,72.6302853,True,2026-02-11 17:56:02.721680,approved,
1,2,Samarpan Maternity And Urosurgical Hospital,Extracted from OpenStreetMap,"Thaltej Road, Thaltej, Ahmedabad",Ahmedabad,23.0506982,72.5157067,True,2026-02-11 17:56:02.721680,approved,
1,2,"Sankalp Eye Hospital, Ahmedabad",Extracted from OpenStreetMap,"Gupta Nagar road, Jivraj park, Ahmedabad",Ahmedabad,23.0052925,72.5372402,True,2026-02-11 17:56:02.721680,approved,
1,2,Suvan Eye Care,Extracted from OpenStreetMap,"Naroda Road, Sahijpur, Ahmedabad",Ahmedabad,23.0577024,72.6369452,True,2026-02-11 17:56:02.721680,approved,
1,2,Matrupooja Eye Hospital,Extracted from OpenStreetMap,"Isanpur Flyover, Isanpur, Ahmedabad",Ahmedabad,22.9745791,72.6024091,True,2026-02-11 17:56:02.721680,approved,
1,2,Shaishav Children Hospital And Neonatal Care Unit,Extracted from OpenStreetMap,"Vastrapur railway station road, vejalpur, Sarkhej",Ahmedabad,23.0034352,72.5187524,True,2026-02-11 17:56:02.721680,approved,
1,2,"Mehta Hospital, Siddhachal",Extracted from OpenStreetMap,"Drive-in Road, Bodakdev, Ahmedabad",Ahmedabad,23.047633,72.5258862,True,2026-02-11 17:56:02.721680,approved,
1,2,Lifecare Emergency Centre,Extracted from OpenStreetMap,"RiverFront Road, Ahmedabad",Ahmedabad,23.0333194,72.5789867,True,2026-02-11 17:56:02.721680,approved,
1,2,Bavishi Hospital,Extracted from OpenStreetMap,"Ashram Road, Paldi, Ahmedabad",Ahmedabad,23.0133482,72.5641099,True,2026-02-11 17:56:02.721680,approved,
1,2,Poojan Children Hospital And Neonatal Care Centre,Extracted from OpenStreetMap,"Gota Road Underpass, Nirnay Nagar, Ahmedabad",Ahmedabad,23.072936,72.5591491,True,2026-02-11 17:56:02.721680,approved,
1,2,Shanti Multi Speciality Hospital,Extracted from OpenStreetMap,"Satellite Road, Ramdev nagar, Ahmedabad",Ahmedabad,23.0241738,72.5295308,True,2026-02-11 17:56:02.721680,approved,
1,2,Cutis Cosmetic Plastic Surgery Centre,Extracted from OpenStreetMap,"Sola Road, Naranpura, Ahmedabad",Ahmedabad,23.0589018,72.537851,True,2026-02-11 17:56:02.721680,approved,
1,2,Rathi Hospital,Extracted from OpenStreetMap,"Satellite Road, Ramdev nagar, Ahmedabad",Ahmedabad,23.0228001,72.5261003,True,2026-02-11 17:56:02.721680,approved,
1,2,Minal Infertility Clinic and Nursing Home,Extracted from OpenStreetMap,"Navrangpura Internal Road, Naranpura, Ahmedabad",Ahmedabad,23.0519495,72.5608003,True,2026-02-11 17:56:02.721680,approved,
1,2,"Raj Nursing Home, Ahmedabad",Extracted from OpenStreetMap,"Jethabhai Parmar Garden Path, Girdharnagar, Ahmedabad",Ahmedabad,23.0524295,72.6002191,True,2026-02-11 17:56:02.721680,approved,
1,2,Navkar Surgical Hospital,Extracted from OpenStreetMap,"120 Feet Ring Road, Usmanpura, Ahmedabad",Ahmedabad,23.0486991,72.5665131,True,2026-02-11 17:56:02.721680,approved,
1,2,"Navjyot Eye Hospital, Ahmedabad",Extracted from OpenStreetMap,"BRTS Station, Usmanpura, Ahmedabad",Ahmedabad,23.0575049,72.5703567,True,2026-02-11 17:56:02.721680,approved,
1,2,Aarna Super Speciality Hospital,Extracted from OpenStreetMap,"Chimanlal Girdharlal Road, Paldi, Ahmedabad",Ahmedabad,23.014477,72.5597177,True,2026-02-11 17:56:02.721680,approved,
1,2,"Shalin Hospital, Ahmedabad",Extracted from OpenStreetMap,"Dharanidhar Flyover, Vasna, Ahmedabad",Ahmedabad,23.0130378,72.5456992,True,2026-02-11 17:56:02.721680,approved,
1,2,Talsania Clinic,Extracted from OpenStreetMap,"Parimal Underpass, Paldi, Ahmedabad",Ahmedabad,23.0178468,72.5582948,True,2026-02-11 17:56:02.721680,approved,
1,2,Samata Hospital Pvt.Ltd,Extracted from OpenStreetMap,"Gota Road, New Ranip, Ahmedabad",Ahmedabad,23.0827039,72.5469075,True,2026-02-11 17:56:02.721680,approved,
1,2,"Community Health Centre, Singarva",Extracted from OpenStreetMap,"NH47, Ahmedabad",Ahmedabad,23.0252575,72.6897398,True,2026-02-11 17:56:02.721680,approved,
1,2,Amijeet Maternity Hospital,Extracted from OpenStreetMap,"1st Line, Nirnay Nagar, Ahmedabad",Ahmedabad,23.0731324,72.5595813,True,2026-02-11 17:56:02.721680,approved,
1,2,Shreeji Orthopaedic And Ent Hospital,Extracted from OpenStreetMap,"Gurukul Road, Vishram Marg, Memnagar, Ahmedabad",Ahmedabad,23.0471787,72.5333127,True,2026-02-11 17:56:02.721680,approved,
1,2,Anand Hospital and Multispeciality,Extracted from OpenStreetMap,"NH8, Thakkarabapa Nagar, Ahmedabad",Ahmedabad,23.0459742,72.6406024,True,2026-02-11 17:56:02.721680,approved,
1,2,Shivam Orthopaedic and Gynec Hospital,Extracted from OpenStreetMap,"Sargam Marg, Vastrapur, Ahmedabad",Ahmedabad,23.0363111,72.5325295,True,2026-02-11 17:56:02.721680,approved,
1,2,Satyam Children Hospital,Extracted from OpenStreetMap,"SH41, Chandkheda, Ahmedabad",Ahmedabad,23.1148697,72.5838657,True,2026-02-11 17:56:02.721680,approved,
1,2,Kadam Maternity Home and Sonography Clinic,Extracted from OpenStreetMap,"Kankaria Lake Front Walkway, Sherkotda, Ahmedabad",Ahmedabad,23.0061658,72.5959302,True,2026-02-11 17:56:02.721680,approved,
